
#BESTPOSA,SPECIAL_30,0,32.0,FINESTEERING,1646,572400.000,00000000,6145,38836;SOL_COMPUTED,OMNISTAR_HP,42.50274886127,-71.22581234471,2725.3841,-28.4000,WGS84,0.0880,0.0907,0.1289,"1000",7.000,0.000,9,9,9,9,0,00,0,03*c8ff8cf5
#BESTGPSPOSA,SPECIAL_30,0,32.0,FINESTEERING,1646,572400.000,00000000,af5b,38836;SOL_COMPUTED,OMNISTAR_HP,42.50274886127,-71.22581234471,2725.3841,-28.4000,WGS84,0.0880,0.0907,0.1289,"1000",7.000,0.000,9,9,9,9,0,00,0,03*c2638583
#INSPVAA,SPECIAL_30,0,32.0,FINESTEERING,1646,572400.000,00000000,5615,38836;1646,572399.998325000,42.502773846,-71.225841976,2695.308710244,31.144349389,-33.684113140,0.329508099,-6.689810306,4.434275181,314.396847811,INS_SOLUTION_GOOD*1a27c9ea
#INSCOVA,SPECIAL_30,0,32.0,FINESTEERING,1646,572400.047,00000000,0929,38836;1646,572400.000000000,0.0035947772489380,-0.0000056791131131,0.0000299707610774,-0.0000056791131131,0.0036066332826363,0.0000551834038012,0.0000299707610774,0.0000551834038012,0.0015230642131421,0.0001127846918166,0.0000006268560549,-0.0000572889613365,0.0000006268560549,0.0001147430828430,-0.0001326324167140,-0.0000572889613365,-0.0001326324167140,0.0050537497642489,0.0001257769842464,0.0000000005904462,0.0000022576719895,0.0000000005904462,0.0001256058358014,0.0000037185875096,0.0000022576719895,0.0000037185875096,0.0000116328971899*b0f2f2c4
#TRACKSTATA,SPECIAL_30,0,32.0,FINESTEERING,1646,572400.000,00000000,457c,38836;SOL_COMPUTED,OMNISTAR_HP,0.0,23,23,0,08109c04,22138328.532,3073.297,50.215,2187.240,-0.034,GOOD,0.785,23,0,01309c0b,22138324.070,2394.777,43.809,2171.900,0.000,OBSL2,0.000,16,0,18109c24,21053963.838,2138.016,50.724,2193.340,0.047,GOOD,1.430,16,0,11309c2b,21053960.756,1665.984,46.231,2176.840,0.000,OBSL2,0.000,25,0,08008046,0.000,-3573.000,20.018,0.000,0.000,NA,0.000,25,0,01208053,0.000,-2784.156,0.000,0.000,0.000,NA,0.000,32,0,08109c64,22977534.734,-2257.984,49.030,2177.372,-0.166,GOOD,0.698,32,0,01309c6b,22977533.489,-1759.469,43.097,2159.480,0.000,OBSL2,0.000,6,0,08109c84,23588320.563,3277.840,47.539,1722.250,0.248,GOOD,0.563,6,0,01309c8b,23588320.927,2554.164,42.143,1722.260,0.000,OBSL2,0.000,3,0,18109ca4,24357491.306,3775.922,47.842,1066.676,0.070,GOOD,0.519,3,0,11309cab,24357492.709,2942.277,39.489,314.640,0.000,OBSL2,0.000,14,0,08109cc4,24441413.728,-3816.230,45.687,2192.250,-0.305,GOOD,0.517,14,0,01309ccb,24441414.580,-2973.695,37.481,2176.840,0.000,OBSL2,0.000,29,0,08109ce4,23380670.662,-1312.844,49.403,2183.596,0.152,GOOD,0.591,29,0,01309ceb,23380669.654,-1023.004,43.377,2165.900,0.000,OBSL2,0.000,20,0,08109d04,22894325.409,-1377.160,49.450,2188.480,0.049,GOOD,0.645,20,0,01309d0b,22894323.741,-1073.121,41.604,2170.840,0.000,OBSL2,0.000,31,0,08109d24,21382701.254,-1613.254,50.591,2181.580,-0.048,GOOD,1.355,31,0,01309d2b,21382697.847,-1257.094,47.081,2164.840,0.000,OBSL2,0.000,0,0,0c022140,0.000,0.000,0.000,0.000,0.000,NA,0.000,0,0,0c022160,0.000,0.000,0.000,0.000,0.000,NA,0.000,0,0,0a671584,0.000,6.211,43.558,2192.608,0.000,NA,0.000*097f4924
#SATVISA,SPECIAL_30,0,32.0,FINESTEERING,1646,572400.000,00000000,0947,38836;TRUE,TRUE,31,16,0,0,53.9,220.9,2138.193,2138.406,31,0,0,52.6,67.5,-1613.986,-1613.773,23,0,0,37.2,310.4,3072.673,3072.886,32,0,0,32.2,233.5,-2258.268,-2258.055,20,0,0,28.4,262.9,-1377.906,-1377.693,29,0,0,23.1,53.0,-1312.998,-1312.785,6,0,0,19.7,166.5,3277.856,3278.069,3,0,0,11.3,180.5,3775.499,3775.712,14,0,0,10.9,139.3,-3815.713,-3815.500,13,0,0,10.2,315.0,3874.062,3874.275,25,0,0,1.5,48.5,-3574.670,-3574.457,1,0,255,-5.9,55.4,1713.227,1713.440,2,0,0,-7.4,4.9,149.888,150.101,10,0,0,-9.6,344.8,3003.779,3003.992,4,0,0,-11.0,325.1,-1526.094,-1525.881,21,0,0,-11.3,103.0,1734.597,1734.810,19,0,0,-13.3,191.7,3123.041,3123.254,24,0,0,-17.9,238.0,-1693.559,-1693.346,7,0,0,-20.1,271.9,2882.444,2882.657,22,0,0,-21.0,159.3,-2735.259,-2735.046,11,0,0,-24.2,224.4,-403.088,-402.876,12,0,0,-27.4,45.9,-3186.332,-3186.119,5,0,0,-35.9,20.1,2904.224,2904.437,8,0,0,-38.4,261.9,2180.842,2181.055,18,0,0,-39.9,131.2,-1424.067,-1423.854,9,0,0,-48.7,106.9,-2244.201,-2243.988,17,0,0,-54.7,304.6,-1438.872,-1438.659,27,0,0,-57.4,113.0,-1397.057,-1396.844,28,0,0,-62.5,229.8,1621.369,1621.582,15,0,0,-71.9,117.5,-917.025,-916.812,26,0,0,-82.7,341.3,898.926,899.139*c198b251
#INSPVAA,SPECIAL_30,0,32.0,FINESTEERING,1646,572400.200,00000000,5615,38836;1646,572400.198336000,42.502829758,-71.225924091,2695.369977964,31.023636287,-33.825901886,0.253072994,-6.887488597,4.318168564,314.204929920,INS_SOLUTION_GOOD*9978c0c5
#INSPVAA,SPECIAL_30,0,32.0,FINESTEERING,1646,572400.400,00000000,5615,38836;1646,572400.398354000,42.502885491,-71.226006524,2695.410964266,30.903001092,-33.977795178,0.165858126,-7.132886575,4.176330909,314.016752544,INS_SOLUTION_GOOD*e9f96637
#INSPVAA,SPECIAL_30,0,32.0,FINESTEERING,1646,572400.600,00000000,5615,38836;1646,572400.598364000,42.502941005,-71.226089325,2695.433171017,30.779966070,-34.131331886,0.071929207,-7.396937396,4.018049104,313.833757499,INS_SOLUTION_GOOD*335ee5ba
#INSPVAA,SPECIAL_30,0,32.0,FINESTEERING,1646,572400.800,00000000,5615,38836;1646,572400.798379000,42.502996293,-71.226172518,2695.435436219,30.656069468,-34.294661489,-0.037598526,-7.658627595,3.871916434,313.649387165,INS_SOLUTION_GOOD*5d7025ff
#BESTPOSA,SPECIAL_30,0,32.0,FINESTEERING,1646,572401.000,00000000,6145,38836;SOL_COMPUTED,OMNISTAR_HP,42.50302656200,-71.22622645025,2725.5411,-28.4000,WGS84,0.0883,0.0910,0.1294,"1000",8.000,0.000,9,9,9,9,0,00,0,03*ee251541
#BESTGPSPOSA,SPECIAL_30,0,32.0,FINESTEERING,1646,572401.000,00000000,af5b,38836;SOL_COMPUTED,OMNISTAR_HP,42.50302656200,-71.22622645025,2725.5411,-28.4000,WGS84,0.0883,0.0910,0.1294,"1000",8.000,0.000,9,9,9,9,0,00,0,03*e4b91c37
#INSPVAA,SPECIAL_30,0,32.0,FINESTEERING,1646,572401.000,00000000,5615,38836;1646,572400.998378000,42.503051353,-71.226256118,2695.415369853,30.525120401,-34.467961214,-0.154931365,-7.911237697,3.734347272,313.468426174,INS_SOLUTION_GOOD*05b9f09e
#INSCOVA,SPECIAL_30,0,32.0,FINESTEERING,1646,572401.047,00000000,0929,38836;1646,572401.000000000,0.0035870109043430,-0.0000022232994153,0.0000324285553096,-0.0000022232994153,0.0035899206740350,0.0000568923307458,0.0000324285553096,0.0000568923307458,0.0015232086978714,0.0001128151137209,0.0000004380558921,-0.0000500632370528,0.0000004380558921,0.0001149130238042,-0.0001328134243672,-0.0000500632370528,-0.0001328134243672,0.0050605252302765,0.0001256727793231,-0.0000006176878602,0.0000029287273822,-0.0000006176878602,0.0001255403834894,0.0000040919524485,0.0000029287273822,0.0000040919524485,0.0000116942673685*f498424d
#COMCONFIGA,SPECIAL_30,0,27.0,FINESTEERING,1646,572401.080,00000000,85aa,38836;4,COM1,9600,N,8,1,N,OFF,ON,NOVATEL,NOVATEL,ON,COM2,230400,N,8,2,N,OFF,ON,NOVATEL,NOVATEL,OFF,COM3,115200,N,8,1,N,OFF,ON,IMU,IMU,OFF,AUX,115200,N,8,1,N,OFF,OFF,IMU,IMU,OFF*2f295046
#TRACKSTATA,SPECIAL_30,0,32.0,FINESTEERING,1646,572401.000,00000000,457c,38836;SOL_COMPUTED,OMNISTAR_HP,0.0,23,23,0,08109c04,22137743.786,3072.250,50.130,2188.240,-0.024,GOOD,0.787,23,0,01309c0b,22137739.322,2393.961,43.857,2172.900,0.000,OBSL2,0.000,16,0,18109c24,21053556.915,2138.562,51.437,2194.340,0.040,GOOD,1.435,16,0,11309c2b,21053553.836,1666.418,46.631,2177.840,0.000,OBSL2,0.000,25,0,08008047,0.000,-3574.750,0.000,0.000,0.000,NA,0.000,25,0,01208053,0.000,-2785.520,0.000,0.000,0.000,NA,0.000,32,0,08109c64,22977964.134,-2255.348,49.429,2178.372,-0.157,GOOD,0.697,32,0,01309c6b,22977962.906,-1757.414,42.788,2160.480,0.000,OBSL2,0.000,6,0,08109c84,23587696.698,3278.801,47.609,1723.250,0.250,GOOD,0.563,6,0,01309c8b,23587697.076,2554.914,42.041,1723.260,0.000,OBSL2,0.000,3,0,18109ca4,24356772.509,3778.598,47.508,1067.676,0.081,GOOD,0.519,3,0,11309cab,24356773.920,2944.363,39.529,315.640,0.000,OBSL2,0.000,14,0,08109cc4,24442140.010,-3817.320,45.292,2193.250,-0.311,GOOD,0.517,14,0,01309ccb,24442140.841,-2974.543,37.752,2177.840,0.000,OBSL2,0.000,29,0,08109ce4,23380921.089,-1319.324,49.248,2184.596,0.142,GOOD,0.590,29,0,01309ceb,23380920.079,-1028.047,42.086,2166.900,0.000,OBSL2,0.000,20,0,08109d04,22894587.271,-1374.977,49.632,2189.480,0.036,GOOD,0.645,20,0,01309d0b,22894585.576,-1071.418,41.514,2171.840,0.000,OBSL2,0.000,31,0,08109d24,21383008.729,-1618.645,51.014,2182.580,-0.043,GOOD,1.351,31,0,01309d2b,21383005.319,-1261.293,46.298,2165.840,0.000,OBSL2,0.000,0,0,0c022140,0.000,0.000,0.000,0.000,0.000,NA,0.000,0,0,0c022160,0.000,0.000,0.000,0.000,0.000,NA,0.000,0,0,0a671584,0.000,9.211,43.555,2193.609,0.000,NA,0.000*b91ea0b5
#SATVISA,SPECIAL_30,0,32.0,FINESTEERING,1646,572401.000,00000000,0947,38836;TRUE,TRUE,31,16,0,0,53.9,220.9,2138.884,2138.922,31,0,0,52.6,67.5,-1619.213,-1619.175,23,0,0,37.2,310.4,3071.778,3071.816,32,0,0,32.2,233.5,-2255.433,-2255.396,20,0,0,28.4,262.9,-1375.554,-1375.516,29,0,0,23.1,52.9,-1319.332,-1319.294,6,0,0,19.7,166.5,3278.979,3279.017,3,0,0,11.3,180.5,3778.275,3778.312,14,0,0,10.9,139.3,-3816.606,-3816.569,13,0,0,10.2,315.0,3874.240,3874.278,25,0,0,1.5,48.5,-3579.991,-3579.954,1,0,255,-5.9,55.4,1707.919,1707.956,2,0,0,-7.4,4.9,146.170,146.208,10,0,0,-9.6,344.8,3001.885,3001.923,4,0,0,-11.0,325.1,-1526.251,-1526.214,21,0,0,-11.3,103.0,1731.898,1731.935,19,0,0,-13.3,191.7,3127.779,3127.817,24,0,0,-17.9,238.0,-1687.564,-1687.526,7,0,0,-20.1,271.9,2887.216,2887.254,22,0,0,-21.0,159.3,-2732.604,-2732.566,11,0,0,-24.2,224.4,-396.954,-396.917,12,0,0,-27.4,45.9,-3189.724,-3189.687,5,0,0,-35.9,20.1,2902.088,2902.125,8,0,0,-38.4,262.0,2186.086,2186.123,18,0,0,-39.9,131.2,-1422.875,-1422.838,9,0,0,-48.7,106.9,-2244.297,-2244.260,17,0,0,-54.7,304.6,-1435.706,-1435.669,27,0,0,-57.4,113.0,-1396.345,-1396.308,28,0,0,-62.5,229.8,1626.146,1626.183,15,0,0,-71.9,117.5,-915.106,-915.068,26,0,0,-82.7,341.3,901.446,901.483*1054487c
#INSPVAA,SPECIAL_30,0,32.0,FINESTEERING,1646,572401.200,00000000,5615,38836;1646,572401.198389000,42.503106144,-71.226340168,2695.377880745,30.397191846,-34.635186779,-0.278409775,-8.143031035,3.616772757,313.285175674,INS_SOLUTION_GOOD*8487fda6
#INSPVAA,SPECIAL_30,0,27.5,FINESTEERING,1646,572401.400,00000000,5615,38836;1646,572401.398400000,42.503160729,-71.226424636,2695.311313904,30.264544956,-34.816255550,-0.398726255,-8.363672393,3.510330512,313.094243570,INS_SOLUTION_GOOD*ecb320a6
#INSPVAA,SPECIAL_30,0,27.5,FINESTEERING,1646,572401.600,00000000,5615,38836;1646,572401.598420000,42.503215068,-71.226509563,2695.220789444,30.128396694,-35.005289144,-0.522538267,-8.580646463,3.413818060,312.890731488,INS_SOLUTION_GOOD*a9191b66
#INSPVAA,SPECIAL_30,0,27.5,FINESTEERING,1646,572401.800,00000000,5615,38836;1646,572401.798435000,42.503269154,-71.226594959,2695.106039206,29.986777855,-35.198357324,-0.640321771,-8.800439294,3.312580502,312.675284918,INS_SOLUTION_GOOD*a527a5d1
#BESTPOSA,SPECIAL_30,0,27.5,FINESTEERING,1646,572402.000,00000000,6145,38836;SOL_COMPUTED,OMNISTAR_HP,42.50329843976,-71.22665097443,2725.1279,-28.4000,WGS84,0.0887,0.0914,0.1299,"1000",9.000,0.000,9,9,9,9,0,00,0,03*9f46a50b
#BESTGPSPOSA,SPECIAL_30,0,27.5,FINESTEERING,1646,572402.000,00000000,af5b,38836;SOL_COMPUTED,OMNISTAR_HP,42.50329843976,-71.22665097443,2725.1279,-28.4000,WGS84,0.0887,0.0914,0.1299,"1000",9.000,0.000,9,9,9,9,0,00,0,03*95daac7d
#INSPVAA,SPECIAL_30,0,27.5,FINESTEERING,1646,572402.000,00000000,5615,38836;1646,572401.998432000,42.503322984,-71.226680838,2694.967534193,29.843310535,-35.399689355,-0.759341621,-9.021116108,3.208881705,312.452182411,INS_SOLUTION_GOOD*0209a4c1
#INSCOVA,SPECIAL_30,0,27.5,FINESTEERING,1646,572402.045,00000000,0929,38836;1646,572402.000000000,0.0035800172140337,-0.0000008399062978,0.0000370270785014,-0.0000008399062978,0.0035782347216474,0.0000597180026574,0.0000370270785014,0.0000597180026574,0.0015235259880679,0.0001129361528003,0.0000003190712933,-0.0000451358857321,0.0000003190712933,0.0001151601715280,-0.0001339657323055,-0.0000451358857321,-0.0001339657323055,0.0050729800620806,0.0001255698421419,-0.0000020844747447,0.0000036872773848,-0.0000020844747447,0.0001270507552097,0.0000045360989005,0.0000036872773848,0.0000045360989005,0.0000117799388587*d25a35b5
#TRACKSTATA,SPECIAL_30,0,27.5,FINESTEERING,1646,572402.000,00000000,457c,38836;SOL_COMPUTED,OMNISTAR_HP,0.0,23,23,0,08109c04,22137159.296,3071.062,50.621,2189.240,-0.018,GOOD,0.787,23,0,01309c0b,22137154.823,2393.035,44.749,2173.900,0.000,OBSL2,0.000,16,0,18109c24,21053149.951,2138.977,51.230,2195.340,0.032,GOOD,1.435,16,0,11309c2b,21053146.855,1666.738,46.399,2178.840,0.000,OBSL2,0.000,25,0,08008047,0.000,-3479.395,0.000,0.000,0.000,NA,0.000,25,0,0120944b,0.000,-2711.215,26.473,0.000,0.000,NA,0.000,32,0,08109c64,22978393.036,-2252.223,49.544,2179.372,-0.155,GOOD,0.697,32,0,01309c6b,22978391.820,-1754.984,42.308,2161.480,0.000,OBSL2,0.000,6,0,08109c84,23587072.668,3279.684,47.701,1724.250,0.248,GOOD,0.563,6,0,01309c8b,23587073.040,2555.602,42.490,1724.260,0.000,OBSL2,0.000,3,0,18109ca4,24356053.195,3781.480,48.248,1068.676,0.092,GOOD,0.519,3,0,11309cab,24356054.608,2946.613,41.169,316.640,0.000,OBSL2,0.000,14,0,08109cc4,24442866.511,-3818.535,44.993,2194.250,-0.312,GOOD,0.517,14,0,01309ccb,24442867.360,-2975.488,37.526,2178.840,0.000,OBSL2,0.000,29,0,08109ce4,23381172.858,-1326.801,48.635,2185.596,0.125,GOOD,0.590,29,0,01309ceb,23381171.845,-1033.875,40.637,2167.900,0.000,OBSL2,0.000,20,0,08109d04,22894848.701,-1372.414,48.870,2190.480,0.036,GOOD,0.645,20,0,01309d0b,22894846.993,-1069.422,42.039,2172.840,0.000,OBSL2,0.000,31,0,08109d24,21383317.360,-1625.113,51.024,2183.580,-0.034,GOOD,1.351,31,0,01309d2b,21383313.960,-1266.328,46.290,2166.840,0.000,OBSL2,0.000,0,0,0c022140,0.000,0.000,0.000,0.000,0.000,NA,0.000,0,0,0c022160,0.000,0.000,0.000,0.000,0.000,NA,0.000,0,0,0a671584,0.000,11.602,44.132,2194.608,0.000,NA,0.000*62d009b4
#SATVISA,SPECIAL_30,0,27.5,FINESTEERING,1646,572402.000,00000000,0947,38836;TRUE,TRUE,31,16,0,0,53.9,220.9,2139.338,2139.311,31,0,0,52.6,67.5,-1625.631,-1625.658,23,0,0,37.2,310.4,3070.635,3070.608,32,0,0,32.2,233.5,-2252.350,-2252.377,20,0,0,28.4,262.9,-1372.903,-1372.930,29,0,0,23.1,52.9,-1326.763,-1326.790,6,0,0,19.7,166.5,3279.981,3279.954,3,0,0,11.3,180.5,3781.250,3781.222,14,0,0,10.9,139.3,-3817.871,-3817.899,13,0,0,10.2,315.0,3874.538,3874.511,25,0,0,1.5,48.5,-3586.147,-3586.174,1,0,255,-5.9,55.4,1701.867,1701.840,2,0,0,-7.4,4.9,142.135,142.108,10,0,0,-9.6,344.8,2999.980,2999.953,4,0,0,-11.0,325.1,-1526.114,-1526.141,21,0,0,-11.3,103.0,1728.719,1728.692,19,0,0,-13.3,191.6,3133.214,3133.187,24,0,0,-17.9,238.0,-1680.506,-1680.534,7,0,0,-20.1,271.9,2892.983,2892.956,22,0,0,-21.0,159.3,-2729.572,-2729.599,11,0,0,-24.2,224.4,-389.744,-389.771,12,0,0,-27.4,45.9,-3193.435,-3193.462,5,0,0,-35.9,20.1,2899.960,2899.933,8,0,0,-38.4,262.0,2192.491,2192.464,18,0,0,-39.9,131.2,-1421.389,-1421.416,9,0,0,-48.7,106.9,-2244.159,-2244.186,17,0,0,-54.7,304.6,-1431.600,-1431.627,27,0,0,-57.4,113.0,-1395.210,-1395.237,28,0,0,-62.4,229.8,1632.060,1632.033,15,0,0,-71.9,117.5,-912.530,-912.557,26,0,0,-82.7,341.3,904.801,904.773*97bf1598
#INSPVAA,SPECIAL_30,0,27.5,FINESTEERING,1646,572402.200,00000000,5615,38836;1646,572402.198446000,42.503376513,-71.226767234,2694.812123400,29.685997811,-35.620169437,-0.865327354,-9.223218060,3.108625811,312.221198208,INS_SOLUTION_GOOD*caf27dee
#INSPVAA,SPECIAL_30,0,27.5,FINESTEERING,1646,572402.400,00000000,5615,38836;1646,572402.398464000,42.503429792,-71.226854146,2694.627778388,29.531720299,-35.833819561,-0.972906040,-9.378268842,3.011734140,311.975728372,INS_SOLUTION_GOOD*d291a9df
#INSPVAA,SPECIAL_30,0,27.5,FINESTEERING,1646,572402.600,00000000,5615,38836;1646,572402.598477000,42.503482784,-71.226941595,2694.421695966,29.376757360,-36.051375055,-1.075468979,-9.487651883,2.922258032,311.715570879,INS_SOLUTION_GOOD*72e52ec0
#INSPVAA,SPECIAL_30,0,33.0,FINESTEERING,1646,572402.800,00000000,5615,38836;1646,572402.798488000,42.503535489,-71.227029591,2694.195347860,29.220291990,-36.271922205,-1.177890276,-9.567545829,2.840228885,311.431289346,INS_SOLUTION_GOOD*f9de6ea0
#BESTPOSA,SPECIAL_30,0,27.5,FINESTEERING,1646,572403.000,00000000,6145,38836;SOL_COMPUTED,OMNISTAR_HP,42.50356387228,-71.22708775552,2724.1268,-28.4000,WGS84,0.0890,0.0917,0.1304,"1000",10.000,0.000,9,9,9,9,0,00,0,03*97fd269a
#BESTGPSPOSA,SPECIAL_30,0,27.5,FINESTEERING,1646,572403.000,00000000,af5b,38836;SOL_COMPUTED,OMNISTAR_HP,42.50356387228,-71.22708775552,2724.1268,-28.4000,WGS84,0.0890,0.0917,0.1304,"1000",10.000,0.000,9,9,9,9,0,00,0,03*2e916e9a
#INSPVAA,SPECIAL_30,0,33.0,FINESTEERING,1646,572403.000,00000000,5615,38836;1646,572402.998491000,42.503587902,-71.227118139,2693.948911882,29.059449055,-36.498606150,-1.272135825,-9.625267221,2.754682197,311.132684974,INS_SOLUTION_GOOD*e9e2a4fe
#INSCOVA,SPECIAL_30,0,27.5,FINESTEERING,1646,572403.047,00000000,0929,38836;1646,572403.000000000,0.0035734238887118,-0.0000037978115138,0.0000438104282464,-0.0000037978115138,0.0035753866726960,0.0000637734883641,0.0000438104282464,0.0000637734883641,0.0015240852239650,0.0001131415222710,0.0000002872929321,-0.0000430822690863,0.0000002872929321,0.0001154966751401,-0.0001363316385911,-0.0000430822690863,-0.0001363316385911,0.0050893332167232,0.0001258090578310,-0.0000047075627393,0.0000045566980843,-0.0000047075627393,0.0001310373683481,0.0000051070090643,0.0000045566980843,0.0000051070090643,0.0000119025098001*4d5728a0
#TRACKSTATA,SPECIAL_30,0,27.5,FINESTEERING,1646,572403.000,00000000,457c,38836;SOL_COMPUTED,OMNISTAR_HP,0.0,23,23,0,08109c04,22136574.984,3070.406,51.057,2190.240,-0.015,GOOD,0.786,23,0,01309c0b,22136570.518,2392.527,44.762,2174.900,0.000,OBSL2,0.000,16,0,18109c24,21052742.825,2140.250,50.637,2196.340,0.027,GOOD,1.434,16,0,11309c2b,21052739.723,1667.730,45.739,2179.840,0.000,OBSL2,0.000,25,0,08008046,0.000,-3590.000,20.018,0.000,0.000,NA,0.000,25,0,01208053,0.000,-2797.402,0.000,0.000,0.000,NA,0.000,32,0,08109c64,22978821.276,-2248.238,49.614,2180.372,-0.161,GOOD,0.697,32,0,01309c6b,22978820.052,-1751.879,41.845,2162.480,0.000,OBSL2,0.000,6,0,08109c84,23586448.410,3281.195,48.052,1725.250,0.259,GOOD,0.563,6,0,01309c8b,23586448.797,2556.785,42.576,1725.260,0.000,OBSL2,0.000,3,0,18109ca4,24355333.289,3785.023,48.844,1069.676,0.091,GOOD,0.519,3,0,11309cab,24355334.703,2949.375,40.341,317.640,0.000,OBSL2,0.000,14,0,08109cc4,24443593.274,-3819.660,45.268,2195.250,-0.315,GOOD,0.517,14,0,01309ccb,24443594.126,-2976.367,36.927,2179.840,0.000,OBSL2,0.000,29,0,08109ce4,23381426.102,-1334.750,48.000,2186.596,0.116,GOOD,0.590,29,0,01309ceb,23381425.101,-1040.070,40.008,2168.900,0.000,OBSL2,0.000,20,0,08109d04,22895109.542,-1368.742,49.072,2191.480,0.041,GOOD,0.644,20,0,01309d0b,22895107.829,-1066.559,42.347,2173.840,0.000,OBSL2,0.000,31,0,08109d24,21383627.243,-1631.648,51.246,2184.580,-0.030,GOOD,1.350,31,0,01309d2b,21383623.851,-1271.414,45.872,2167.840,0.000,OBSL2,0.000,0,0,0c022140,0.000,0.000,0.000,0.000,0.000,NA,0.000,0,0,0c022160,0.000,0.000,0.000,0.000,0.000,NA,0.000,0,0,0a671584,0.000,15.637,43.481,2195.609,0.000,NA,0.000*5790bbc0
#SATVISA,SPECIAL_30,0,27.5,FINESTEERING,1646,572403.000,00000000,0947,38836;TRUE,TRUE,31,16,0,0,53.9,220.9,2140.452,2140.453,31,0,0,52.6,67.5,-1632.330,-1632.329,23,0,0,37.2,310.4,3069.841,3069.843,32,0,0,32.2,233.5,-2248.447,-2248.446,20,0,0,28.4,262.9,-1369.484,-1369.483,29,0,0,23.1,52.9,-1334.833,-1334.832,6,0,0,19.8,166.5,3281.309,3281.310,3,0,0,11.3,180.5,3784.698,3784.699,14,0,0,10.8,139.3,-3819.207,-3819.206,13,0,0,10.2,315.0,3875.059,3875.060,25,0,0,1.5,48.5,-3593.092,-3593.090,1,0,255,-5.9,55.4,1694.986,1694.988,2,0,0,-7.4,4.9,137.589,137.591,10,0,0,-9.6,344.8,2997.802,2997.803,4,0,0,-11.0,325.1,-1525.981,-1525.980,21,0,0,-11.3,103.0,1724.927,1724.929,19,0,0,-13.3,191.6,3139.130,3139.132,24,0,0,-17.9,238.0,-1672.759,-1672.757,7,0,0,-20.1,271.9,2899.289,2899.291,22,0,0,-21.0,159.3,-2726.485,-2726.484,11,0,0,-24.2,224.4,-381.924,-381.923,12,0,0,-27.4,45.9,-3197.962,-3197.961,5,0,0,-35.9,20.1,2897.164,2897.166,8,0,0,-38.4,262.0,2199.315,2199.316,18,0,0,-39.9,131.2,-1420.248,-1420.246,9,0,0,-48.7,106.9,-2244.562,-2244.561,17,0,0,-54.7,304.6,-1427.516,-1427.515,27,0,0,-57.4,113.0,-1394.538,-1394.536,28,0,0,-62.4,229.8,1638.118,1638.120,15,0,0,-71.9,117.5,-910.324,-910.323,26,0,0,-82.7,341.3,907.877,907.879*14724e06
#INSPVAA,SPECIAL_30,0,33.0,FINESTEERING,1646,572403.200,00000000,5615,38836;1646,572403.198502000,42.503640009,-71.227207250,2693.689814043,28.882833037,-36.745441551,-1.367136626,-9.673962128,2.677789607,310.822982420,INS_SOLUTION_GOOD*628ea719
#INSPVAA,SPECIAL_30,0,33.0,FINESTEERING,1646,572403.400,00000000,5615,38836;1646,572403.398517000,42.503691833,-71.227296923,2693.408403015,28.718112716,-36.979402319,-1.445057906,-9.720587200,2.601178979,310.505527525,INS_SOLUTION_GOOD*2f2df164
#INSPVAA,SPECIAL_30,0,33.0,FINESTEERING,1646,572403.600,00000000,5615,38836;1646,572403.598532000,42.503743353,-71.227387170,2693.111421037,28.548952483,-37.215147174,-1.524834835,-9.765910652,2.527503416,310.181398525,INS_SOLUTION_GOOD*5d3c81be
#INSPVAA,SPECIAL_30,0,32.0,FINESTEERING,1646,572403.800,00000000,5615,38836;1646,572403.798547000,42.503794567,-71.227477994,2692.799445163,28.376935001,-37.454580835,-1.598971334,-9.822336841,2.455327098,309.855461341,INS_SOLUTION_GOOD*216f7d8d
#BESTPOSA,SPECIAL_30,0,32.0,FINESTEERING,1646,572404.000,00000000,6145,38836;SOL_COMPUTED,OMNISTAR_HP,42.50382211615,-71.22753821577,2722.6589,-28.4000,WGS84,0.0893,0.0921,0.1309,"1000",11.000,0.000,9,9,9,9,0,00,0,03*a7e9ae4f
#BESTGPSPOSA,SPECIAL_30,0,32.0,FINESTEERING,1646,572404.000,00000000,af5b,38836;SOL_COMPUTED,OMNISTAR_HP,42.50382211615,-71.22753821577,2722.6589,-28.4000,WGS84,0.0893,0.0921,0.1309,"1000",11.000,0.000,9,9,9,9,0,00,0,03*1e85e64f
#INSPVAA,SPECIAL_30,0,32.0,FINESTEERING,1646,572404.000,00000000,5615,38836;1646,572403.998536000,42.503845469,-71.227569404,2692.473109007,28.204110728,-37.695153813,-1.669419371,-9.885034478,2.389630214,309.527254196,INS_SOLUTION_GOOD*d2a83603
#INSCOVA,SPECIAL_30,0,32.0,FINESTEERING,1646,572404.045,00000000,0929,38836;1646,572404.000000000,0.0035687721713157,-0.0000137251537869,0.0000528131364686,-0.0000137251537869,0.0035878025619960,0.0000693239784467,0.0000528131364686,0.0000693239784467,0.0015249852037839,0.0001134389538267,0.0000003594787011,-0.0000443485777871,0.0000003594787011,0.0001159399878402,-0.0001400139732571,-0.0000443485777871,-0.0001400139732571,0.0051053914478312,0.0001270982191185,-0.0000088033609278,0.0000055119233334,-0.0000088033609278,0.0001384956702793,0.0000058563599576,0.0000055119233334,0.0000058563599576,0.0000120718917300*468b48b8
#TRACKSTATA,SPECIAL_30,0,32.0,FINESTEERING,1646,572404.000,00000000,457c,38836;SOL_COMPUTED,OMNISTAR_HP,0.0,23,23,0,08109c04,22135990.726,3070.289,50.475,2191.240,-0.015,GOOD,0.786,23,0,01309c0b,22135986.258,2392.438,43.596,2175.900,0.000,OBSL2,0.000,16,0,18109c24,21052335.339,2142.695,50.364,2197.340,0.028,GOOD,1.433,16,0,11309c2b,21052332.231,1669.633,46.247,2180.840,0.000,OBSL2,0.000,25,0,08008046,0.000,-3598.000,24.420,0.000,0.000,NA,0.000,25,0,01208053,0.000,-2803.637,0.000,0.000,0.000,NA,0.000,32,0,08109c64,22979248.637,-2243.176,49.837,2181.372,-0.162,GOOD,0.696,32,0,01309c6b,22979247.410,-1747.934,42.327,2163.480,0.000,OBSL2,0.000,6,0,08109c84,23585823.830,3283.320,48.987,1726.250,0.264,GOOD,0.563,6,0,01309c8b,23585824.218,2558.438,41.843,1726.260,0.000,OBSL2,0.000,3,0,18109ca4,24354612.650,3789.273,48.982,1070.676,0.092,GOOD,0.519,3,0,11309cab,24354614.070,2952.688,40.561,318.640,0.000,OBSL2,0.000,14,0,08109cc4,24444320.261,-3820.824,45.920,2196.250,-0.321,GOOD,0.517,14,0,01309ccb,24444321.102,-2977.270,37.588,2180.840,0.000,OBSL2,0.000,29,0,08109ce4,23381680.865,-1342.855,46.229,2187.596,0.120,GOOD,0.589,29,0,01309ceb,23381679.848,-1046.387,38.255,2169.900,0.000,OBSL2,0.000,20,0,08109d04,22895369.618,-1364.227,49.361,2192.480,0.039,GOOD,0.644,20,0,01309d0b,22895367.911,-1063.043,42.046,2174.840,0.000,OBSL2,0.000,31,0,08109d24,21383938.344,-1637.883,51.238,2185.580,-0.032,GOOD,1.349,31,0,01309d2b,21383934.960,-1276.270,46.081,2168.840,0.000,OBSL2,0.000,0,0,0c022140,0.000,0.000,0.000,0.000,0.000,NA,0.000,0,0,0c022160,0.000,0.000,0.000,0.000,0.000,NA,0.000,0,0,0a671584,0.000,19.500,43.924,2196.608,0.000,NA,0.000*1f8b3617
#SATVISA,SPECIAL_30,0,32.0,FINESTEERING,1646,572404.000,00000000,0947,38836;TRUE,TRUE,31,16,0,0,53.9,220.9,2142.776,2142.885,31,0,0,52.6,67.6,-1638.626,-1638.517,23,0,0,37.2,310.4,3069.709,3069.818,32,0,0,32.2,233.5,-2243.430,-2243.321,20,0,0,28.4,262.9,-1365.099,-1364.990,29,0,0,23.1,52.9,-1343.141,-1343.032,6,0,0,19.8,166.5,3283.299,3283.408,3,0,0,11.3,180.5,3788.812,3788.921,14,0,0,10.8,139.3,-3820.317,-3820.208,13,0,0,10.2,315.0,3875.773,3875.881,25,0,0,1.5,48.5,-3600.699,-3600.590,1,0,255,-5.9,55.4,1687.324,1687.433,2,0,0,-7.4,4.9,132.402,132.511,10,0,0,-9.6,344.8,2995.131,2995.240,4,0,0,-11.0,325.1,-1526.141,-1526.032,21,0,0,-11.3,103.0,1720.565,1720.674,19,0,0,-13.3,191.6,3145.368,3145.477,24,0,0,-17.9,238.0,-1664.675,-1664.566,7,0,0,-20.1,271.9,2905.704,2905.812,22,0,0,-21.0,159.3,-2723.505,-2723.396,11,0,0,-24.2,224.4,-373.885,-373.776,12,0,0,-27.4,45.9,-3203.562,-3203.453,5,0,0,-35.8,20.1,2893.279,2893.388,8,0,0,-38.4,262.0,2205.957,2206.066,18,0,0,-39.9,131.2,-1419.796,-1419.688,9,0,0,-48.7,106.9,-2245.939,-2245.830,17,0,0,-54.7,304.6,-1424.168,-1424.059,27,0,0,-57.4,113.0,-1394.854,-1394.745,28,0,0,-62.4,229.8,1643.609,1643.718,15,0,0,-71.9,117.5,-909.140,-909.031,26,0,0,-82.7,341.3,909.923,910.032*2f7892f5
#INSPVAA,SPECIAL_30,0,32.0,FINESTEERING,1646,572404.200,00000000,5615,38836;1646,572404.198552000,42.503896056,-71.227661386,2692.137116160,28.022922187,-37.947550091,-1.733747075,-9.950554872,2.331277259,309.204741059,INS_SOLUTION_GOOD*df63a9b9
#INSPVAA,SPECIAL_30,0,32.0,FINESTEERING,1646,572404.400,00000000,5615,38836;1646,572404.398559000,42.503946328,-71.227753979,2691.785567613,27.841816612,-38.193905740,-1.792002735,-10.021118488,2.283944956,308.882934566,INS_SOLUTION_GOOD*c0fcf5e5
#INSPVAA,SPECIAL_30,0,32.0,FINESTEERING,1646,572404.600,00000000,5615,38836;1646,572404.598568000,42.503996276,-71.227847169,2691.422671948,27.662357301,-38.439960838,-1.847987604,-10.094467141,2.239093087,308.566109615,INS_SOLUTION_GOOD*58008b4e
#INSPVAA,SPECIAL_30,0,32.0,FINESTEERING,1646,572404.800,00000000,5615,38836;1646,572404.798593000,42.504045895,-71.227940962,2691.049180629,27.472140444,-38.693915715,-1.899768560,-10.162981180,2.194871576,308.256422646,INS_SOLUTION_GOOD*eeace12a
#BESTPOSA,SPECIAL_30,0,32.0,FINESTEERING,1646,572405.000,00000000,6145,38836;SOL_COMPUTED,OMNISTAR_HP,42.50407239256,-71.22800344249,2720.8609,-28.4000,WGS84,0.0897,0.0924,0.1314,"1000",12.000,0.000,9,9,9,9,0,00,0,03*0a67d440
#BESTGPSPOSA,SPECIAL_30,0,32.0,FINESTEERING,1646,572405.000,00000000,af5b,38836;SOL_COMPUTED,OMNISTAR_HP,42.50407239256,-71.22800344249,2720.8609,-28.4000,WGS84,0.0897,0.0924,0.1314,"1000",12.000,0.000,9,9,9,9,0,00,0,03*b30b9c40
#INSCOVA,SPECIAL_30,0,32.0,FINESTEERING,1646,572405.046,00000000,0929,38836;1646,572405.000000000,0.0035690262165498,-0.0000334729632125,0.0000639362578182,-0.0000334729632125,0.0036230465964390,0.0000766732177425,0.0000639362578182,0.0000766732177425,0.0015263475047202,0.0001138422699255,0.0000005554014133,-0.0000492899393689,0.0000005554014133,0.0001164988844259,-0.0001449793170308,-0.0000492899393689,-0.0001449793170308,0.0051143249436493,0.0001294975793211,-0.0000141875476473,0.0000064783282051,-0.0000141875476473,0.0001490792410006,0.0000067380337248,0.0000064783282051,0.0000067380337248,0.0000122805723622*7e6776ca
#INSPVAA,SPECIAL_30,0,32.0,FINESTEERING,1646,572405.000,00000000,5615,38836;1646,572404.998590000,42.504095173,-71.228035370,2690.666670254,27.283073013,-38.946609535,-1.943601173,-10.235378489,2.163289327,307.949141755,INS_SOLUTION_GOOD*f68c065b
#TRACKSTATA,SPECIAL_30,0,32.0,FINESTEERING,1646,572405.000,00000000,457c,38836;SOL_COMPUTED,OMNISTAR_HP,0.0,23,23,0,08109c04,22135406.448,3070.723,50.368,2192.240,-0.017,GOOD,0.786,23,0,01309c0b,22135401.984,2392.773,43.324,2176.900,0.000,OBSL2,0.000,16,0,18109c24,21051927.331,2145.812,50.053,2198.340,0.038,GOOD,1.432,16,0,11309c2b,21051924.240,1672.062,45.659,2181.840,0.000,OBSL2,0.000,25,0,08008047,0.000,-3656.039,0.000,0.000,0.000,NA,0.000,25,0,01208053,0.000,-2848.863,0.000,0.000,0.000,NA,0.000,32,0,08109c64,22979674.977,-2237.250,49.641,2182.372,-0.168,GOOD,0.696,32,0,01309c6b,22979673.757,-1743.316,42.665,2164.480,0.000,OBSL2,0.000,6,0,08109c84,23585198.847,3285.742,49.501,1727.250,0.258,GOOD,0.563,6,0,01309c8b,23585199.222,2560.328,41.372,1727.260,0.000,OBSL2,0.000,3,0,18109ca4,24353891.179,3793.801,48.157,1071.676,0.101,GOOD,0.519,3,0,11309cab,24353892.604,2956.219,39.452,319.640,0.000,OBSL2,0.000,14,0,08109cc4,24445047.453,-3821.648,46.792,2197.250,-0.329,GOOD,0.517,14,0,01309ccb,24445048.296,-2977.910,38.535,2181.840,0.000,OBSL2,0.000,29,0,08109ce4,23381937.214,-1351.410,45.484,2188.596,0.138,GOOD,0.589,29,0,01309ceb,23381936.188,-1053.043,39.645,2170.900,0.000,OBSL2,0.000,20,0,08109d04,22895628.794,-1359.184,49.651,2193.480,0.033,GOOD,0.644,20,0,01309d0b,22895627.083,-1059.109,42.727,2175.840,0.000,OBSL2,0.000,31,0,08109d24,21384250.638,-1644.062,51.047,2186.580,-0.040,GOOD,1.348,31,0,01309d2b,21384247.259,-1281.078,46.275,2169.840,0.000,OBSL2,0.000,0,0,0c022140,0.000,0.000,0.000,0.000,0.000,NA,0.000,0,0,0c022160,0.000,0.000,0.000,0.000,0.000,NA,0.000,0,0,0a671584,0.000,25.281,44.029,2197.609,0.000,NA,0.000*f8becb9b
#SATVISA,SPECIAL_30,0,32.0,FINESTEERING,1646,572405.000,00000000,0947,38836;TRUE,TRUE,31,16,0,0,53.9,220.9,2145.765,2145.988,31,0,0,52.6,67.6,-1644.907,-1644.683,23,0,0,37.2,310.4,3069.954,3070.178,32,0,0,32.2,233.5,-2237.710,-2237.487,20,0,0,28.4,262.8,-1360.072,-1359.849,29,0,0,23.1,52.9,-1351.787,-1351.564,6,0,0,19.8,166.5,3285.621,3285.845,3,0,0,11.3,180.5,3793.321,3793.545,14,0,0,10.8,139.3,-3821.403,-3821.180,13,0,0,10.3,315.0,3876.663,3876.886,25,0,0,1.5,48.5,-3608.844,-3608.620,1,0,255,-5.9,55.4,1679.065,1679.289,2,0,0,-7.4,4.9,126.813,127.036,10,0,0,-9.6,344.8,2992.209,2992.432,4,0,0,-11.0,325.1,-1526.376,-1526.153,21,0,0,-11.3,103.0,1715.748,1715.971,19,0,0,-13.3,191.6,3151.892,3152.116,24,0,0,-17.9,237.9,-1656.197,-1655.974,7,0,0,-20.1,271.9,2912.386,2912.610,22,0,0,-21.0,159.3,-2720.559,-2720.336,11,0,0,-24.2,224.4,-365.529,-365.306,12,0,0,-27.4,45.9,-3209.846,-3209.623,5,0,0,-35.8,20.1,2888.772,2888.995,8,0,0,-38.4,262.0,2212.718,2212.941,18,0,0,-39.9,131.2,-1419.731,-1419.508,9,0,0,-48.7,106.9,-2247.869,-2247.646,17,0,0,-54.7,304.6,-1421.058,-1420.835,27,0,0,-57.4,113.0,-1395.694,-1395.471,28,0,0,-62.4,229.8,1648.971,1649.194,15,0,0,-71.9,117.5,-908.450,-908.227,26,0,0,-82.7,341.3,911.518,911.741*fb0e711b
#INSPVAA,SPECIAL_30,0,32.0,FINESTEERING,1646,572405.200,00000000,5615,38836;1646,572405.198609000,42.504144102,-71.228130370,2690.279644990,27.091835198,-39.196794059,-1.972084402,-10.301349770,2.141245867,307.657404881,INS_SOLUTION_GOOD*b76c139c
#INSPVAA,SPECIAL_30,0,32.0,FINESTEERING,1646,572405.400,00000000,5615,38836;1646,572405.398620000,42.504192684,-71.228226009,2689.882974654,26.891375296,-39.453868402,-2.001704013,-10.356497657,2.125055001,307.376427648,INS_SOLUTION_GOOD*e08b8c56
#INSPVAA,SPECIAL_30,0,32.0,FINESTEERING,1646,572405.600,00000000,5615,38836;1646,572405.598633000,42.504240906,-71.228322272,2689.481274081,26.692515743,-39.710562510,-2.023545901,-10.403655645,2.112479187,307.095612092,INS_SOLUTION_GOOD*27d18893
#INSPVAA,SPECIAL_30,0,32.0,FINESTEERING,1646,572405.800,00000000,5615,38836;1646,572405.798655000,42.504288765,-71.228419159,2689.075580837,26.488779549,-39.966671204,-2.039924982,-10.439964227,2.099915580,306.816641807,INS_SOLUTION_GOOD*2a76533d
#BESTPOSA,SPECIAL_30,0,32.0,FINESTEERING,1646,572406.000,00000000,6145,38836;SOL_COMPUTED,OMNISTAR_HP,42.50431399979,-71.22848410674,2718.8559,-28.4000,WGS84,0.0900,0.0928,0.1319,"1000",13.000,0.000,9,9,9,9,0,00,0,03*847ad037
#BESTGPSPOSA,SPECIAL_30,0,32.0,FINESTEERING,1646,572406.000,00000000,af5b,38836;SOL_COMPUTED,OMNISTAR_HP,42.50431399979,-71.22848410674,2718.8559,-28.4000,WGS84,0.0900,0.0928,0.1319,"1000",13.000,0.000,9,9,9,9,0,00,0,03*3d169837
#INSPVAA,SPECIAL_30,0,32.0,FINESTEERING,1646,572406.000,00000000,5615,38836;1646,572405.998631000,42.504336255,-71.228516670,2688.666791745,26.283233635,-40.223889606,-2.055189069,-10.472804154,2.085213498,306.536429303,INS_SOLUTION_GOOD*e7209819
#INSCOVA,SPECIAL_30,0,32.0,FINESTEERING,1646,572406.045,00000000,0929,38836;1646,572406.000000000,0.0035766496778299,-0.0000649987105721,0.0000768645120585,-0.0000649987105721,0.0036857284838872,0.0000859497220718,0.0000768645120585,0.0000859497220718,0.0015282754323904,0.0001143715767829,0.0000009008619264,-0.0000581623309112,0.0000009008619264,0.0001171765631447,-0.0001511660120561,-0.0000581623309112,-0.0001511660120561,0.0051066184675993,0.0001329987345847,-0.0000206647729088,0.0000074271017937,-0.0000206647729088,0.0001618619483084,0.0000077353348535,0.0000074271017937,0.0000077353348535,0.0000125252048705*2b0e8fe3
#COMCONFIGA,SPECIAL_30,0,27.5,FINESTEERING,1646,572406.080,00000000,85aa,38836;4,COM1,9600,N,8,1,N,OFF,ON,NOVATEL,NOVATEL,ON,COM2,230400,N,8,2,N,OFF,ON,NOVATEL,NOVATEL,OFF,COM3,115200,N,8,1,N,OFF,ON,IMU,IMU,OFF,AUX,115200,N,8,1,N,OFF,OFF,IMU,IMU,OFF*017175e2
#TRACKSTATA,SPECIAL_30,0,32.0,FINESTEERING,1646,572406.000,00000000,457c,38836;SOL_COMPUTED,OMNISTAR_HP,0.0,23,23,0,08109c04,22134822.055,3071.246,50.177,2193.240,-0.014,GOOD,0.785,23,0,01309c0b,22134817.587,2393.180,42.838,2177.900,0.000,OBSL2,0.000,16,0,18109c24,21051518.636,2149.613,50.179,2199.340,0.042,GOOD,1.431,16,0,11309c2b,21051515.553,1675.023,45.769,2182.840,0.000,OBSL2,0.000,25,0,08008046,0.000,-3613.000,20.018,0.000,0.000,NA,0.000,25,0,01208053,0.000,-2815.324,0.000,0.000,0.000,NA,0.000,32,0,08109c64,22980100.114,-2230.898,49.345,2183.372,-0.170,GOOD,0.696,32,0,01309c6b,22980098.899,-1738.363,43.135,2165.480,0.000,OBSL2,0.000,6,0,08109c84,23584573.316,3288.695,49.629,1728.250,0.255,GOOD,0.563,6,0,01309c8b,23584573.676,2562.625,40.977,1728.260,0.000,OBSL2,0.000,3,0,18109ca4,24353168.748,3798.938,47.792,1072.676,0.114,GOOD,0.518,3,0,11309cab,24353170.176,2960.219,39.859,320.640,0.000,OBSL2,0.000,14,0,08109cc4,24445774.774,-3822.457,47.648,2198.250,-0.338,GOOD,0.517,14,0,01309ccb,24445775.633,-2978.543,38.481,2182.840,0.000,OBSL2,0.000,29,0,08109ce4,23382195.191,-1360.141,46.470,2189.596,0.145,GOOD,0.589,29,0,01309ceb,23382194.171,-1059.844,40.816,2171.900,0.000,OBSL2,0.000,20,0,08109d04,22895886.931,-1353.602,49.674,2194.480,0.023,GOOD,0.644,20,0,01309d0b,22895885.207,-1054.758,42.704,2176.840,0.000,OBSL2,0.000,31,0,08109d24,21384564.047,-1649.906,50.929,2187.580,-0.044,GOOD,1.347,31,0,01309d2b,21384560.660,-1285.633,46.262,2170.840,0.000,OBSL2,0.000,0,0,0c022140,0.000,0.000,0.000,0.000,0.000,NA,0.000,0,0,0c022160,0.000,0.000,0.000,0.000,0.000,NA,0.000,0,0,0a671584,0.000,31.531,44.694,2198.608,0.000,NA,0.000*f9b469e3
#INSPVAA,SPECIAL_30,0,32.0,FINESTEERING,1646,572406.200,00000000,5615,38836;1646,572406.198642000,42.504383365,-71.228614797,2688.257502263,26.078371386,-40.474119416,-2.060674533,-10.505679090,2.072609744,306.253440573,INS_SOLUTION_GOOD*4b6e21e8
#SATVISA,SPECIAL_30,0,32.0,FINESTEERING,1646,572406.000,00000000,0947,38836;TRUE,TRUE,31,16,0,0,53.9,220.9,2149.605,2149.855,31,0,0,52.6,67.6,-1650.759,-1650.509,23,0,0,37.2,310.4,3070.514,3070.764,32,0,0,32.2,233.5,-2231.281,-2231.031,20,0,0,28.4,262.8,-1354.523,-1354.272,29,0,0,23.1,52.9,-1360.470,-1360.220,6,0,0,19.8,166.5,3288.563,3288.813,3,0,0,11.3,180.5,3798.401,3798.651,14,0,0,10.8,139.3,-3822.107,-3821.857,13,0,0,10.3,315.0,3877.477,3877.727,25,0,0,1.5,48.5,-3617.350,-3617.100,1,0,255,-5.9,55.3,1670.379,1670.629,2,0,0,-7.4,4.9,120.692,120.942,10,0,0,-9.6,344.8,2988.785,2989.035,4,0,0,-11.0,325.0,-1527.026,-1526.776,21,0,0,-11.3,102.9,1710.752,1711.002,19,0,0,-13.3,191.6,3158.677,3158.928,24,0,0,-17.9,237.9,-1647.630,-1647.380,7,0,0,-20.1,271.9,2918.915,2919.165,22,0,0,-21.0,159.3,-2717.553,-2717.303,11,0,0,-24.2,224.4,-357.122,-356.872,12,0,0,-27.4,45.9,-3216.825,-3216.575,5,0,0,-35.8,20.1,2883.457,2883.708,8,0,0,-38.4,262.0,2219.157,2219.407,18,0,0,-39.9,131.2,-1420.011,-1419.760,9,0,0,-48.7,106.9,-2250.365,-2250.115,17,0,0,-54.7,304.6,-1418.645,-1418.395,27,0,0,-57.4,113.1,-1397.145,-1396.895,28,0,0,-62.4,229.8,1653.837,1654.087,15,0,0,-71.9,117.5,-908.455,-908.205,26,0,0,-82.7,341.3,912.314,912.564*0cea921e
#INSPVAA,SPECIAL_30,0,32.0,FINESTEERING,1646,572406.400,00000000,5615,38836;1646,572406.398666000,42.504430107,-71.228713553,2687.844476888,25.867853011,-40.731371471,-2.072929321,-10.527830050,2.069409957,305.973267510,INS_SOLUTION_GOOD*d3f2b311
#INSPVAA,SPECIAL_30,0,32.0,FINESTEERING,1646,572406.600,00000000,5615,38836;1646,572406.598669000,42.504476469,-71.228812926,2687.429796293,25.658693499,-40.980812813,-2.077134454,-10.549094989,2.067699635,305.693650310,INS_SOLUTION_GOOD*5b8362e0
#INSPVAA,SPECIAL_30,0,32.0,FINESTEERING,1646,572406.800,00000000,5615,38836;1646,572406.798687000,42.504522446,-71.228912920,2687.013681281,25.443071245,-41.234834416,-2.085718116,-10.561126256,2.071391225,305.399769858,INS_SOLUTION_GOOD*7162d13b
#BESTPOSA,SPECIAL_30,0,32.0,FINESTEERING,1646,572407.000,00000000,6145,38836;SOL_COMPUTED,OMNISTAR_HP,42.50454649244,-71.22898029948,2716.7170,-28.4000,WGS84,0.0878,0.0907,0.1287,"1000",8.000,0.000,9,9,9,9,0,00,0,03*68e3fc98
#BESTGPSPOSA,SPECIAL_30,0,32.0,FINESTEERING,1646,572407.000,00000000,af5b,38836;SOL_COMPUTED,OMNISTAR_HP,42.50454649244,-71.22898029948,2716.7170,-28.4000,WGS84,0.0878,0.0907,0.1287,"1000",8.000,0.000,9,9,9,9,0,00,0,03*627ff5ee
#INSCOVA,SPECIAL_30,0,32.0,FINESTEERING,1646,572407.044,00000000,0929,38836;1646,572407.000000000,0.0035933444613472,-0.0001088448750124,0.0000912147891328,-0.0001088448750124,0.0037754571641685,0.0000971687599278,0.0000912147891328,0.0000971687599278,0.0015308404638539,0.0001150559193324,0.0000014227671781,-0.0000709255285362,0.0000014227671781,0.0001179694908605,-0.0001584058456951,-0.0000709255285362,-0.0001584058456951,0.0050712650926441,0.0001377073075539,-0.0000278630964269,0.0000083363501146,-0.0000278630964269,0.0001753993563422,0.0000088185313056,0.0000083363501146,0.0000088185313056,0.0000127991675390*36ea9aa2
#INSPVAA,SPECIAL_30,0,32.0,FINESTEERING,1646,572407.000,00000000,5615,38836;1646,572406.998684000,42.504568031,-71.229013525,2686.595926736,25.225023322,-41.485356387,-2.095886245,-10.574699192,2.069485038,305.100855303,INS_SOLUTION_GOOD*837c31a6
#TRACKSTATA,SPECIAL_30,0,32.0,FINESTEERING,1646,572407.000,00000000,457c,38836;SOL_COMPUTED,OMNISTAR_HP,0.0,23,23,0,08109c04,22134237.565,3071.594,50.009,2194.240,-0.045,GOOD,0.787,23,0,01309c0b,22134233.088,2393.449,41.816,2178.900,0.000,OBSL2,0.000,16,0,18109c24,21051109.174,2153.762,50.186,2200.340,0.042,GOOD,1.435,16,0,11309c2b,21051106.100,1678.258,45.835,2183.840,0.000,OBSL2,0.000,25,0,08008444,0.000,-3405.512,30.001,0.000,0.000,NA,0.000,25,0,0120904b,0.000,-2653.645,20.018,0.000,0.000,NA,0.000,32,0,08109c64,22980524.015,-2224.332,49.624,2184.372,-0.155,GOOD,0.697,32,0,01309c6b,22980522.803,-1733.246,43.280,2166.480,0.000,OBSL2,0.000,6,0,08109c84,23583947.205,3291.699,49.151,1729.250,0.242,GOOD,0.564,6,0,01309c8b,23583947.555,2564.957,40.460,1729.260,0.000,OBSL2,0.000,3,0,18109ca4,24352445.348,3804.168,48.007,1073.676,0.045,GOOD,0.519,3,0,11309cab,24352446.774,2964.293,41.310,321.640,0.000,OBSL2,0.000,14,0,08109cc4,24446502.213,-3823.230,47.435,2199.250,-0.283,GOOD,0.518,14,0,01309ccb,24446503.082,-2979.148,39.312,2183.840,0.000,OBSL2,0.000,29,0,08109ce4,23382454.849,-1369.145,46.180,2190.596,0.146,GOOD,0.590,29,0,01309ceb,23382453.844,-1066.859,40.935,2172.900,0.000,OBSL2,0.000,20,0,08109d04,22896144.003,-1348.281,49.123,2195.480,0.067,GOOD,0.645,20,0,01309d0b,22896142.279,-1050.609,42.979,2177.840,0.000,OBSL2,0.000,31,0,08109d24,21384878.553,-1655.723,50.823,2188.580,-0.044,GOOD,1.351,31,0,01309d2b,21384875.159,-1290.168,46.133,2171.840,0.000,OBSL2,0.000,0,0,0c022140,0.000,0.000,0.000,0.000,0.000,NA,0.000,0,0,0c022160,0.000,0.000,0.000,0.000,0.000,NA,0.000,0,0,0a671584,0.000,35.656,43.962,2199.609,0.000,NA,0.000*d5479a33
#SATVISA,SPECIAL_30,0,32.0,FINESTEERING,1646,572407.000,00000000,0947,38836;TRUE,TRUE,31,16,0,0,53.9,220.9,2154.212,2154.163,31,0,0,52.6,67.6,-1656.075,-1656.124,23,0,0,37.3,310.4,3071.313,3071.264,32,0,0,32.2,233.5,-2224.280,-2224.329,20,0,0,28.4,262.8,-1348.602,-1348.651,29,0,0,23.1,52.9,-1369.037,-1369.086,6,0,0,19.8,166.5,3292.119,3292.070,3,0,0,11.3,180.5,3804.003,3803.954,14,0,0,10.8,139.3,-3822.357,-3822.406,13,0,0,10.3,315.0,3878.133,3878.084,25,0,0,1.5,48.5,-3626.061,-3626.110,1,0,255,-5.9,55.3,1661.431,1661.382,2,0,0,-7.4,4.9,114.100,114.051,10,0,0,-9.6,344.8,2984.860,2984.811,4,0,0,-11.0,325.0,-1528.149,-1528.198,21,0,0,-11.3,102.9,1705.726,1705.677,19,0,0,-13.3,191.6,3165.643,3165.594,24,0,0,-17.9,237.9,-1639.136,-1639.185,7,0,0,-20.1,272.0,2925.133,2925.083,22,0,0,-21.0,159.3,-2714.473,-2714.523,11,0,0,-24.2,224.4,-348.803,-348.852,12,0,0,-27.4,45.9,-3224.364,-3224.413,5,0,0,-35.8,20.1,2877.416,2877.367,8,0,0,-38.3,262.0,2225.134,2225.085,18,0,0,-39.9,131.2,-1420.564,-1420.613,9,0,0,-48.7,106.9,-2253.332,-2253.381,17,0,0,-54.7,304.6,-1416.996,-1417.045,27,0,0,-57.5,113.1,-1399.134,-1399.183,28,0,0,-62.4,229.8,1658.131,1658.082,15,0,0,-71.9,117.4,-909.118,-909.167,26,0,0,-82.7,341.3,912.307,912.258*23a5e792
#INSPVAA,SPECIAL_30,0,32.0,FINESTEERING,1646,572407.200,00000000,5615,38836;1646,572407.198700000,42.504613249,-71.229114753,2686.171216161,25.002621988,-41.734494909,-2.089327421,-10.585940001,2.079534217,304.794123514,INS_SOLUTION_GOOD*f7473532
#INSPVAA,SPECIAL_30,0,32.0,FINESTEERING,1646,572407.400,00000000,5615,38836;1646,572407.398728000,42.504658042,-71.229216573,2685.752975854,24.779058095,-41.986065692,-2.085343515,-10.598381493,2.080297130,304.483344700,INS_SOLUTION_GOOD*964cda29
#INSPVAA,SPECIAL_30,0,25.0,FINESTEERING,1646,572407.600,00000000,5615,38836;1646,572407.598735000,42.504702430,-71.229319002,2685.337854464,24.559776661,-42.231584893,-2.075235382,-10.583818402,2.098562016,304.174949501,INS_SOLUTION_GOOD*a9d5e0d6
#INSPVAA,SPECIAL_30,0,25.0,FINESTEERING,1646,572407.800,00000000,5615,38836;1646,572407.798749000,42.504746406,-71.229422039,2684.924184404,24.323837725,-42.479790380,-2.050257812,-10.510371036,2.109536569,303.860721448,INS_SOLUTION_GOOD*31eb0178
#BESTPOSA,SPECIAL_30,0,25.0,FINESTEERING,1646,572408.000,00000000,6145,38836;SOL_COMPUTED,OMNISTAR_HP,42.50476908476,-71.22949166750,2714.6445,-28.4000,WGS84,0.0881,0.0910,0.1292,"1000",9.000,0.000,9,9,9,9,0,00,0,03*ad18d8e8
#BESTGPSPOSA,SPECIAL_30,0,25.0,FINESTEERING,1646,572408.000,00000000,af5b,38836;SOL_COMPUTED,OMNISTAR_HP,42.50476908476,-71.22949166750,2714.6445,-28.4000,WGS84,0.0881,0.0910,0.1292,"1000",9.000,0.000,9,9,9,9,0,00,0,03*a784d19e
#INSPVAA,SPECIAL_30,0,25.0,FINESTEERING,1646,572408.000,00000000,5615,38836;1646,572407.998735000,42.504789956,-71.229525685,2684.515301341,24.098219625,-42.725620501,-2.029923518,-10.389593574,2.127622830,303.529072874,INS_SOLUTION_GOOD*3e41e133
#INSCOVA,SPECIAL_30,0,25.0,FINESTEERING,1646,572408.044,00000000,0929,38836;1646,572408.000000000,0.0036198921928073,-0.0001633145821783,0.0001065450395259,-0.0001633145821783,0.0038854363515842,0.0001101148088719,0.0001065450395259,0.0001101148088719,0.0015340562088235,0.0001159293010627,0.0000021454097545,-0.0000871421566002,0.0000021454097545,0.0001188667341851,-0.0001664185964899,-0.0000871421566002,-0.0001664185964899,0.0049981739214078,0.0001429532177828,-0.0000347253385701,0.0000091601534946,-0.0000347253385701,0.0001871209670497,0.0000098714073401,0.0000091601534946,0.0000098714073401,0.0000130793224405*f7bdb202
#TRACKSTATA,SPECIAL_30,0,25.0,FINESTEERING,1646,572408.000,00000000,457c,38836;SOL_COMPUTED,OMNISTAR_HP,0.0,23,23,0,08109c04,22133652.990,3072.371,49.976,2195.240,-0.047,GOOD,0.787,23,0,01309c0b,22133648.505,2394.055,43.066,2179.900,0.000,OBSL2,0.000,16,0,18109c24,21050698.878,2158.621,50.217,2201.340,0.046,GOOD,1.435,16,0,11309c2b,21050695.813,1682.043,46.158,2184.840,0.000,OBSL2,0.000,25,0,08008046,0.000,-3628.000,22.303,0.000,0.000,NA,0.000,25,0,01208053,0.000,-2827.012,0.000,0.000,0.000,NA,0.000,32,0,08109c64,22980946.639,-2217.273,49.925,2185.372,-0.162,GOOD,0.697,32,0,01309c6b,22980945.440,-1727.746,42.763,2167.480,0.000,OBSL2,0.000,6,0,08109c84,23583320.434,3295.891,48.933,1730.250,0.244,GOOD,0.563,6,0,01309c8b,23583320.773,2568.219,41.115,1730.260,0.000,OBSL2,0.000,3,0,18109ca4,24351720.913,3810.031,47.447,1074.676,0.047,GOOD,0.519,3,0,11309cab,24351722.351,2968.859,41.748,322.640,0.000,OBSL2,0.000,14,0,08109cc4,24447229.715,-3823.023,46.522,2200.250,-0.288,GOOD,0.517,14,0,01309ccb,24447230.601,-2978.988,39.127,2184.840,0.000,OBSL2,0.000,29,0,08109ce4,23382716.151,-1377.184,47.020,2191.596,0.154,GOOD,0.590,29,0,01309ceb,23382715.119,-1073.129,39.184,2173.900,0.000,OBSL2,0.000,20,0,08109d04,22896400.010,-1342.312,49.100,2196.480,0.068,GOOD,0.645,20,0,01309d0b,22896398.296,-1045.957,43.157,2178.840,0.000,OBSL2,0.000,31,0,08109d24,21385194.099,-1660.656,50.806,2189.580,-0.048,GOOD,1.351,31,0,01309d2b,21385190.704,-1294.020,46.027,2172.840,0.000,OBSL2,0.000,0,0,0c022140,0.000,0.000,0.000,0.000,0.000,NA,0.000,0,0,0c022160,0.000,0.000,0.000,0.000,0.000,NA,0.000,0,0,0a671584,0.000,43.691,44.290,2200.608,0.000,NA,0.000*d8c66da5
#SATVISA,SPECIAL_30,0,25.0,FINESTEERING,1646,572408.000,00000000,0947,38836;TRUE,TRUE,31,16,0,0,54.0,220.9,2158.794,2158.780,31,0,0,52.6,67.6,-1661.199,-1661.213,23,0,0,37.3,310.4,3071.885,3071.871,32,0,0,32.2,233.5,-2217.400,-2217.414,20,0,0,28.4,262.8,-1342.917,-1342.931,29,0,0,23.1,52.9,-1377.420,-1377.435,6,0,0,19.8,166.5,3295.880,3295.866,3,0,0,11.3,180.5,3809.739,3809.725,14,0,0,10.8,139.3,-3822.294,-3822.308,13,0,0,10.3,315.0,3878.485,3878.471,25,0,0,1.5,48.5,-3634.617,-3634.631,1,0,255,-5.9,55.3,1652.665,1652.650,2,0,0,-7.4,4.9,107.402,107.388,10,0,0,-9.6,344.8,2980.723,2980.708,4,0,0,-11.0,325.0,-1529.564,-1529.578,21,0,0,-11.3,102.9,1701.022,1701.007,19,0,0,-13.3,191.6,3172.657,3172.643,24,0,0,-17.9,237.9,-1630.851,-1630.865,7,0,0,-20.1,272.0,2931.026,2931.012,22,0,0,-21.0,159.3,-2711.197,-2711.211,11,0,0,-24.2,224.4,-340.626,-340.640,12,0,0,-27.4,45.9,-3231.803,-3231.817,5,0,0,-35.8,20.1,2871.333,2871.319,8,0,0,-38.3,262.0,2230.844,2230.830,18,0,0,-39.9,131.2,-1420.904,-1420.918,9,0,0,-48.7,106.9,-2256.111,-2256.126,17,0,0,-54.7,304.6,-1415.584,-1415.599,27,0,0,-57.5,113.1,-1400.982,-1400.996,28,0,0,-62.4,229.8,1662.304,1662.290,15,0,0,-71.9,117.4,-909.727,-909.741,26,0,0,-82.7,341.3,912.217,912.203*3bdf0d86
#INSPVAA,SPECIAL_30,0,25.0,FINESTEERING,1646,572408.200,00000000,5615,38836;1646,572408.198748000,42.504833110,-71.229629957,2684.106437154,23.856088803,-42.972132729,-1.997600079,-10.255928832,2.147763670,303.202556853,INS_SOLUTION_GOOD*1172df78
#INSPVAA,SPECIAL_30,0,25.0,FINESTEERING,1646,572408.400,00000000,5615,38836;1646,572408.398762000,42.504875836,-71.229734770,2683.709317748,23.628991451,-43.208668925,-1.963743372,-10.122370844,2.168434722,302.876906548,INS_SOLUTION_GOOD*80dab122
#INSPVAA,SPECIAL_30,0,25.0,FINESTEERING,1646,572408.600,00000000,5615,38836;1646,572408.598783000,42.504918154,-71.229840143,2683.320129212,23.406595296,-43.435854331,-1.932260443,-10.001759342,2.193143463,302.552468648,INS_SOLUTION_GOOD*daea01c1
#INSPVAA,SPECIAL_30,0,25.0,FINESTEERING,1646,572408.800,00000000,5615,38836;1646,572408.798798000,42.504960068,-71.229946070,2682.938576681,23.179236502,-43.664645351,-1.888522121,-9.896416536,2.223663860,302.233162605,INS_SOLUTION_GOOD*22b82910
#BESTPOSA,SPECIAL_30,0,25.0,FINESTEERING,1646,572409.000,00000000,6145,38836;SOL_COMPUTED,OMNISTAR_HP,42.50498150335,-71.23001754250,2712.6818,-28.4000,WGS84,0.0885,0.0914,0.1297,"1000",10.000,0.000,9,9,9,9,0,00,0,03*55f2b625
#BESTGPSPOSA,SPECIAL_30,0,25.0,FINESTEERING,1646,572409.000,00000000,af5b,38836;SOL_COMPUTED,OMNISTAR_HP,42.50498150335,-71.23001754250,2712.6818,-28.4000,WGS84,0.0885,0.0914,0.1297,"1000",10.000,0.000,9,9,9,9,0,00,0,03*ec9efe25
#INSPVAA,SPECIAL_30,0,31.5,FINESTEERING,1646,572409.000,00000000,5615,38836;1646,572408.998803000,42.505001571,-71.230052550,2682.566357010,22.949933111,-43.889400880,-1.845841700,-9.807926053,2.274912669,301.909084201,INS_SOLUTION_GOOD*8d142de3
#INSCOVA,SPECIAL_30,0,25.0,FINESTEERING,1646,572409.049,00000000,0929,38836;1646,572409.000000000,0.0036548939474674,-0.0002237990509325,0.0001223381074612,-0.0002237990509325,0.0040016244153875,0.0001242450211013,0.0001223381074612,0.0001242450211013,0.0015378511126541,0.0001170200419140,0.0000030867274291,-0.0001059671582614,0.0000030867274291,0.0001198523226134,-0.0001748851264389,-0.0001059671582614,-0.0001748851264389,0.0048812899102857,0.0001485012869837,-0.0000404939457976,0.0000099087792579,-0.0000404939457976,0.0001954508282127,0.0000108411951344,0.0000099087792579,0.0000108411951344,0.0000133540759980*961d2bfa
#TRACKSTATA,SPECIAL_30,0,25.0,FINESTEERING,1646,572409.000,00000000,457c,38836;SOL_COMPUTED,OMNISTAR_HP,0.0,23,23,0,08109c04,22133068.248,3073.328,49.712,2196.240,-0.043,GOOD,0.786,23,0,01309c0b,22133063.775,2394.801,43.668,2180.900,0.000,OBSL2,0.000,16,0,18109c24,21050287.602,2164.152,50.109,2202.340,0.047,GOOD,1.434,16,0,11309c2b,21050284.539,1686.352,45.987,2185.840,0.000,OBSL2,0.000,25,0,08008047,0.000,-3651.219,0.000,0.000,0.000,NA,0.000,25,0,01208053,0.000,-2845.105,0.000,0.000,0.000,NA,0.000,32,0,08109c64,22981367.869,-2209.770,50.082,2186.372,-0.164,GOOD,0.697,32,0,01309c6b,22981366.673,-1721.902,42.663,2168.480,0.000,OBSL2,0.000,6,0,08109c84,23582692.868,3300.098,48.313,1731.250,0.240,GOOD,0.563,6,0,01309c8b,23582693.193,2571.492,41.856,1731.260,0.000,OBSL2,0.000,3,0,18109ca4,24350995.305,3816.445,47.253,1075.676,0.062,GOOD,0.519,3,0,11309cab,24350996.759,2973.855,40.711,323.640,0.000,OBSL2,0.000,14,0,08109cc4,24447957.138,-3821.996,46.866,2201.250,-0.295,GOOD,0.517,14,0,01309ccb,24447958.029,-2978.188,37.943,2185.840,0.000,OBSL2,0.000,29,0,08109ce4,23382979.008,-1385.109,46.599,2192.596,0.154,GOOD,0.590,29,0,01309ceb,23382977.973,-1079.309,40.439,2174.900,0.000,OBSL2,0.000,20,0,08109d04,22896654.890,-1336.398,49.154,2197.480,0.061,GOOD,0.645,20,0,01309d0b,22896653.184,-1041.348,43.700,2179.840,0.000,OBSL2,0.000,31,0,08109d24,21385510.516,-1664.805,50.922,2190.580,-0.048,GOOD,1.350,31,0,01309d2b,21385507.113,-1297.254,45.913,2173.840,0.000,OBSL2,0.000,0,0,0c022140,0.000,0.000,0.000,0.000,0.000,NA,0.000,0,0,0c022160,0.000,0.000,0.000,0.000,0.000,NA,0.000,0,0,0a671584,0.000,51.672,43.698,2201.609,0.000,NA,0.000*50759334
#SATVISA,SPECIAL_30,0,25.0,FINESTEERING,1646,572409.000,00000000,0947,38836;TRUE,TRUE,31,16,0,0,54.0,220.9,2164.209,2164.212,31,0,0,52.5,67.6,-1665.428,-1665.425,23,0,0,37.3,310.4,3072.712,3072.715,32,0,0,32.1,233.5,-2210.032,-2210.029,20,0,0,28.4,262.8,-1336.988,-1336.985,29,0,0,23.1,52.9,-1385.363,-1385.360,6,0,0,19.8,166.5,3300.342,3300.345,3,0,0,11.3,180.5,3815.984,3815.988,14,0,0,10.8,139.3,-3821.604,-3821.601,13,0,0,10.3,315.0,3878.577,3878.580,25,0,0,1.5,48.5,-3643.128,-3643.125,1,0,255,-5.9,55.3,1643.866,1643.869,2,0,0,-7.4,4.8,100.285,100.288,10,0,0,-9.6,344.8,2976.032,2976.036,4,0,0,-11.0,325.0,-1531.600,-1531.597,21,0,0,-11.3,102.9,1696.485,1696.488,19,0,0,-13.3,191.6,3179.685,3179.688,24,0,0,-17.9,237.9,-1622.960,-1622.957,7,0,0,-20.1,272.0,2936.274,2936.277,22,0,0,-21.0,159.3,-2707.899,-2707.896,11,0,0,-24.2,224.4,-332.848,-332.845,12,0,0,-27.4,45.9,-3239.705,-3239.702,5,0,0,-35.8,20.1,2864.503,2864.506,8,0,0,-38.3,262.0,2235.726,2235.729,18,0,0,-39.9,131.2,-1421.549,-1421.546,9,0,0,-48.7,106.9,-2259.386,-2259.383,17,0,0,-54.7,304.5,-1415.243,-1415.240,27,0,0,-57.5,113.1,-1403.453,-1403.450,28,0,0,-62.4,229.8,1665.577,1665.580,15,0,0,-71.9,117.4,-911.160,-911.157,26,0,0,-82.7,341.3,911.079,911.082*928201b5
#INSPVAA,SPECIAL_30,0,31.5,FINESTEERING,1646,572409.200,00000000,5615,38836;1646,572409.198814000,42.505042672,-71.230159609,2682.198471013,22.717391617,-44.109317324,-1.788013331,-9.711140501,2.354696200,301.588953732,INS_SOLUTION_GOOD*36f95ccd
#INSPVAA,SPECIAL_30,0,31.5,FINESTEERING,1646,572409.400,00000000,5615,38836;1646,572409.398826000,42.505083354,-71.230267156,2681.848232199,22.485718818,-44.328013951,-1.727215850,-9.590480863,2.428984328,301.285941008,INS_SOLUTION_GOOD*24334f00
#INSPVAA,SPECIAL_30,0,31.5,FINESTEERING,1646,572409.600,00000000,5615,38836;1646,572409.598839000,42.505123619,-71.230375218,2681.509400340,22.259171483,-44.536849712,-1.662431382,-9.429545290,2.479906176,300.997294732,INS_SOLUTION_GOOD*f05743be
#INSPVAA,SPECIAL_30,0,31.0,FINESTEERING,1646,572409.800,00000000,5615,38836;1646,572409.798857000,42.505163478,-71.230483771,2681.182103737,22.035174559,-44.735689895,-1.599049857,-9.292625480,2.496083296,300.714051019,INS_SOLUTION_GOOD*c9338c87
#BESTPOSA,SPECIAL_30,0,31.0,FINESTEERING,1646,572410.000,00000000,6145,38836;SOL_COMPUTED,OMNISTAR_HP,42.50518363477,-71.23055685624,2710.9608,-28.4000,WGS84,0.0888,0.0917,0.1302,"1000",11.000,0.000,9,9,9,9,0,00,0,03*7860526a
#BESTGPSPOSA,SPECIAL_30,0,31.0,FINESTEERING,1646,572410.000,00000000,af5b,38836;SOL_COMPUTED,OMNISTAR_HP,42.50518363477,-71.23055685624,2710.9608,-28.4000,WGS84,0.0888,0.0917,0.1302,"1000",11.000,0.000,9,9,9,9,0,00,0,03*c10c1a6a
#INSPVAA,SPECIAL_30,0,31.0,FINESTEERING,1646,572410.000,00000000,5615,38836;1646,572409.998852000,42.505202938,-71.230592800,2680.865650728,21.807165469,-44.934895847,-1.548652910,-9.211475595,2.482852862,300.439382744,INS_SOLUTION_GOOD*0e62aca0
#INSCOVA,SPECIAL_30,0,31.0,FINESTEERING,1646,572410.049,00000000,0929,38836;1646,572410.000000000,0.0036963312890433,-0.0002838343595994,0.0001381645404841,-0.0002838343595994,0.0041078986489306,0.0001388904543340,0.0001381645404841,0.0001388904543340,0.0015420899856141,0.0001183418509608,0.0000042505149835,-0.0001261945466820,0.0000042505149835,0.0001209101056492,-0.0001834657383895,-0.0001261945466820,-0.0001834657383895,0.0047214506935820,0.0001534247449296,-0.0000437565562625,0.0000105590664708,-0.0000437565562625,0.0001985726767396,0.0000116130479869,0.0000105590664708,0.0000116130479869,0.0000135907537955*8761934e
#TRACKSTATA,SPECIAL_30,0,31.0,FINESTEERING,1646,572410.000,00000000,457c,38836;SOL_COMPUTED,OMNISTAR_HP,0.0,23,23,0,08109c04,22132483.331,3074.180,49.754,2197.240,-0.034,GOOD,0.786,23,0,01309c0b,22132478.865,2395.461,43.424,2181.900,0.000,OBSL2,0.000,16,0,18109c24,21049875.279,2169.758,50.229,2203.340,0.042,GOOD,1.433,16,0,11309c2b,21049872.221,1690.715,45.821,2186.840,0.000,OBSL2,0.000,25,0,08009044,0.000,-3683.125,30.001,0.000,0.000,NA,0.000,25,0,0120904b,0.000,-2869.969,20.018,0.000,0.000,NA,0.000,32,0,08109c64,22981787.702,-2202.461,50.293,2187.372,-0.161,GOOD,0.697,32,0,01309c6b,22981786.514,-1716.211,43.273,2169.480,0.000,OBSL2,0.000,6,0,08109c84,23582064.417,3304.949,48.426,1732.250,0.255,GOOD,0.563,6,0,01309c8b,23582064.753,2575.277,42.375,1732.260,0.000,OBSL2,0.000,3,0,18109ca4,24350268.524,3822.551,48.114,1076.676,0.063,GOOD,0.519,3,0,11309cab,24350269.983,2978.617,40.498,324.640,0.000,OBSL2,0.000,14,0,08109cc4,24448684.398,-3821.129,47.358,2202.250,-0.303,GOOD,0.517,14,0,01309ccb,24448685.274,-2977.512,39.620,2186.840,0.000,OBSL2,0.000,29,0,08109ce4,23383243.317,-1392.422,48.104,2193.596,0.148,GOOD,0.590,29,0,01309ceb,23383242.272,-1085.012,41.477,2175.900,0.000,OBSL2,0.000,20,0,08109d04,22896908.657,-1330.605,49.080,2198.480,0.052,GOOD,0.644,20,0,01309d0b,22896906.945,-1036.840,42.556,2180.840,0.000,OBSL2,0.000,31,0,08109d24,21385827.665,-1668.230,51.237,2191.580,-0.046,GOOD,1.350,31,0,01309d2b,21385824.255,-1299.926,46.902,2174.840,0.000,OBSL2,0.000,0,0,0c022140,0.000,0.000,0.000,0.000,0.000,NA,0.000,0,0,0c022160,0.000,0.000,0.000,0.000,0.000,NA,0.000,0,0,0a671584,0.000,58.691,43.072,2202.608,0.000,NA,0.000*0f41e9b1
#SATVISA,SPECIAL_30,0,31.0,FINESTEERING,1646,572410.000,00000000,0947,38836;TRUE,TRUE,31,16,0,0,54.0,220.9,2169.946,2169.993,31,0,0,52.5,67.6,-1668.798,-1668.751,23,0,0,37.3,310.4,3073.698,3073.745,32,0,0,32.1,233.5,-2202.687,-2202.640,20,0,0,28.4,262.8,-1331.184,-1331.137,29,0,0,23.1,52.9,-1392.607,-1392.560,6,0,0,19.8,166.5,3305.067,3305.114,3,0,0,11.3,180.5,3822.271,3822.319,14,0,0,10.8,139.3,-3820.524,-3820.477,13,0,0,10.3,315.0,3878.501,3878.548,25,0,0,1.5,48.5,-3651.179,-3651.132,1,0,255,-5.9,55.3,1635.466,1635.513,2,0,0,-7.4,4.8,93.214,93.261,10,0,0,-9.6,344.8,2971.183,2971.230,4,0,0,-11.0,325.0,-1533.980,-1533.933,21,0,0,-11.3,102.9,1692.279,1692.326,19,0,0,-13.3,191.6,3186.366,3186.413,24,0,0,-17.9,237.9,-1615.741,-1615.694,7,0,0,-20.1,272.0,2940.805,2940.852,22,0,0,-21.0,159.3,-2704.763,-2704.716,11,0,0,-24.2,224.4,-325.741,-325.694,12,0,0,-27.4,45.9,-3247.543,-3247.496,5,0,0,-35.8,20.1,2857.478,2857.525,8,0,0,-38.3,262.0,2239.770,2239.818,18,0,0,-39.9,131.2,-1422.392,-1422.345,9,0,0,-48.7,106.9,-2262.876,-2262.829,17,0,0,-54.7,304.5,-1415.680,-1415.633,27,0,0,-57.5,113.1,-1406.275,-1406.228,28,0,0,-62.4,229.8,1668.028,1668.075,15,0,0,-71.9,117.4,-913.126,-913.079,26,0,0,-82.7,341.3,909.241,909.288*acbedec1
#INSPVAA,SPECIAL_30,0,31.0,FINESTEERING,1646,572410.200,00000000,5615,38836;1646,572410.198868000,42.505241994,-71.230702321,2680.546032561,21.587116071,-45.123573360,-1.524088897,-9.110944022,2.406770451,300.186975382,INS_SOLUTION_GOOD*ba12045c
#INSPVAA,SPECIAL_30,0,31.0,FINESTEERING,1646,572410.400,00000000,5615,38836;1646,572410.398876000,42.505280648,-71.230812284,2680.236901411,21.368924530,-45.313875153,-1.512588172,-8.906426975,2.306141077,299.953754781,INS_SOLUTION_GOOD*0924da6f
#INSPVAA,SPECIAL_30,0,31.0,FINESTEERING,1646,572410.600,00000000,5615,38836;1646,572410.598896000,42.505318914,-71.230922709,2679.928237475,21.159311144,-45.498217520,-1.519517659,-8.637188097,2.224558516,299.721921296,INS_SOLUTION_GOOD*91eb2ccd
#INSPVAA,SPECIAL_30,0,31.0,FINESTEERING,1646,572410.800,00000000,5615,38836;1646,572410.798911000,42.505356811,-71.231033581,2679.618686582,20.963389919,-45.675541710,-1.532771147,-8.342143651,2.179132062,299.482451380,INS_SOLUTION_GOOD*c06f397d
#BESTPOSA,SPECIAL_30,0,31.0,FINESTEERING,1646,572411.000,00000000,6145,38836;SOL_COMPUTED,OMNISTAR_HP,42.50537596412,-71.23110818555,2709.4260,-28.4000,WGS84,0.0891,0.0921,0.1306,"1000",12.000,0.000,9,9,9,9,0,00,0,03*cab00274
#BESTGPSPOSA,SPECIAL_30,0,31.0,FINESTEERING,1646,572411.000,00000000,af5b,38836;SOL_COMPUTED,OMNISTAR_HP,42.50537596412,-71.23110818555,2709.4260,-28.4000,WGS84,0.0891,0.0921,0.1306,"1000",12.000,0.000,9,9,9,9,0,00,0,03*73dc4a74
#INSPVAA,SPECIAL_30,0,31.0,FINESTEERING,1646,572411.000,00000000,5615,38836;1646,572410.998912000,42.505394359,-71.231144884,2679.307337881,20.770979045,-45.850154451,-1.549828942,-8.047783042,2.165638382,299.244637058,INS_SOLUTION_GOOD*3fa9c00f
#INSCOVA,SPECIAL_30,0,31.0,FINESTEERING,1646,572411.044,00000000,0929,38836;1646,572411.000000000,0.0037399583132280,-0.0003346340019822,0.0001535287101076,-0.0003346340019822,0.0041875282519728,0.0001531583627623,0.0001535287101076,0.0001531583627623,0.0015465292424682,0.0001198817883853,0.0000056307557048,-0.0001465617639031,0.0000056307557048,0.0001220332129835,-0.0001919960468598,-0.0001465617639031,-0.0001919960468598,0.0045266793874525,0.0001571388949303,-0.0000438951291810,0.0000110873429875,-0.0000438951291810,0.0001960165467008,0.0000121498830657,0.0000110873429875,0.0000121498830657,0.0000137698834707*4c7d9093
#COMCONFIGA,SPECIAL_30,0,25.0,FINESTEERING,1646,572411.080,00000000,85aa,38836;4,COM1,9600,N,8,1,N,OFF,ON,NOVATEL,NOVATEL,ON,COM2,230400,N,8,2,N,OFF,ON,NOVATEL,NOVATEL,OFF,COM3,115200,N,8,1,N,OFF,ON,IMU,IMU,OFF,AUX,115200,N,8,1,N,OFF,OFF,IMU,IMU,OFF*a3697152
