
#BESTPOSA,SPECIAL_30,0,32.0,FINESTEERING,1646,579480.000,00000000,6145,38836;SOL_COMPUTED,OMNISTAR_HP,42.48376648935,-71.33945131687,947.8906,-28.5000,WGS84,0.0269,0.0345,0.0885,"1000",14.000,0.000,10,9,9,9,0,00,0,03*f1a3697a
#BESTGPSPOSA,SPECIAL_30,0,32.0,FINESTEERING,1646,579480.000,00000000,af5b,38836;SOL_COMPUTED,OMNISTAR_HP,42.48376648935,-71.33945131687,947.8906,-28.5000,WGS84,0.0269,0.0345,0.0885,"1000",14.000,0.000,10,9,9,9,0,00,0,03*48cf217a
#INSPVAA,SPECIAL_30,0,32.5,FINESTEERING,1646,579480.000,00000000,5615,38836;1646,579479.995990000,42.483737692,-71.339456798,917.333660344,-69.830200561,7.854175611,-4.121911517,-10.959728555,-3.675772536,180.129117311,INS_SOLUTION_GOOD*062dd313
#INSCOVA,SPECIAL_30,0,32.0,FINESTEERING,1646,579480.046,00000000,0929,38836;1646,579480.000000000,0.0036095383171932,-0.0000004099469505,-0.0002750265946671,-0.0000004099469505,0.0036492462520811,0.0000552377849569,-0.0002750265946671,0.0000552377849569,0.0015608861039115,0.0001059719446079,-0.0000043751273856,0.0001439904631627,-0.0000043751273856,0.0000937379391360,-0.0000301256193175,0.0001439904631627,-0.0000301256193175,0.0013223195899181,0.0001308847989584,-0.0000007520476666,-0.0000176489677148,-0.0000007520476666,0.0001338067982478,0.0000026389080637,-0.0000176489677148,0.0000026389080637,0.0000141825795798*9bafcc2d
#TRACKSTATA,SPECIAL_30,0,32.0,FINESTEERING,1646,579480.000,00000000,457c,38836;SOL_COMPUTED,OMNISTAR_HP,0.0,23,23,0,08109c04,20743840.493,-1172.840,50.759,9267.250,-0.380,GOOD,1.659,23,0,01309c0b,20743835.420,-913.902,45.656,9251.900,0.000,OBSL2,0.000,16,0,18109c24,20587050.209,-1366.262,50.484,9273.350,-0.081,GOOD,3.602,16,0,11309c2b,20587046.338,-1064.625,47.822,9256.840,0.000,OBSL2,0.000,13,0,18109c44,20970216.243,720.555,50.757,5812.946,0.030,GOOD,1.390,13,0,11309c4b,20970213.342,561.473,45.286,5811.400,0.000,OBSL2,0.000,7,0,08109c64,24109672.174,2982.820,46.630,1262.220,0.494,GOOD,0.542,7,0,01309c6b,24109671.452,2324.277,37.902,1260.680,0.000,OBSL2,0.000,6,0,08109c84,20656137.817,290.520,50.447,8802.260,0.152,GOOD,2.796,6,0,01309c8b,20656135.269,226.375,45.702,8802.260,0.000,OBSL2,0.000,3,0,18109ca4,20097958.482,1660.020,50.589,6347.470,0.149,GOOD,2.741,3,0,11309cab,20097956.010,1293.523,44.659,6347.460,0.000,OBSL2,0.000,19,0,08109cc4,22265635.421,3646.309,49.710,2142.280,-0.087,GOOD,0.734,19,0,01309ccb,22265631.601,2841.281,46.234,2142.300,0.000,OBSL2,0.000,21,0,18109ce4,25180573.414,502.863,46.929,218.230,-0.442,GOOD,0.516,21,0,11309ceb,25180572.670,391.844,39.321,215.720,0.000,OBSL2,0.000,10,0,18109d04,25130266.481,-1105.223,36.177,17.550,0.088,GOOD,0.453,10,0,11309d0b,25130265.546,-861.211,16.037,2.420,0.000,OBSL2,0.000,31,0,08109d24,24455108.682,-2748.996,49.253,9261.570,0.059,GOOD,0.527,31,0,01309d2b,24455108.582,-2142.078,45.458,9244.820,0.000,OBSL2,0.000,0,0,0c022140,0.000,0.000,0.000,0.000,0.000,NA,0.000,0,0,0c022160,0.000,0.000,0.000,0.000,0.000,NA,0.000,0,0,0a671584,0.000,121.305,42.465,9272.615,0.000,NA,0.000*c1c68397
#SATVISA,SPECIAL_30,0,32.0,FINESTEERING,1646,579480.000,00000000,0947,38836;TRUE,TRUE,30,16,0,0,68.3,32.7,-1366.358,-1366.231,6,0,0,65.2,112.7,292.340,292.467,3,0,0,65.0,156.9,1662.341,1662.469,23,0,0,56.8,231.2,-1174.116,-1173.989,13,0,0,53.4,287.2,718.431,718.558,19,0,0,34.6,180.8,3647.353,3647.481,7,0,0,16.5,302.0,2984.425,2984.552,31,0,0,13.3,113.7,-2748.364,-2748.236,21,0,0,10.6,62.1,503.952,504.079,10,0,0,5.9,305.3,-1107.678,-1107.551,20,0,0,-3.5,221.8,-2342.098,-2341.971,5,0,0,-6.2,350.3,920.367,920.494,8,0,0,-6.3,296.0,2966.790,2966.917,32,0,0,-7.0,201.0,-2033.674,-2033.547,11,0,0,-11.0,188.6,3132.308,3132.435,29,0,0,-12.0,28.9,-3855.892,-3855.765,24,0,0,-22.2,195.7,1788.400,1788.527,28,0,0,-25.8,244.4,2701.288,2701.415,2,0,0,-27.7,327.9,-2745.177,-2745.050,22,0,0,-31.7,118.3,860.938,861.065,18,0,0,-32.2,82.6,1655.118,1655.246,14,0,0,-32.6,145.1,-2675.789,-2675.662,25,0,0,-36.0,73.9,-2525.305,-2525.178,4,0,0,-36.8,287.5,-2165.944,-2165.817,26,0,0,-42.4,348.3,3114.859,3114.986,17,0,0,-56.4,234.5,1534.289,1534.416,15,0,0,-60.2,17.2,1739.429,1739.556,12,0,0,-61.1,81.8,-1317.159,-1317.032,9,0,0,-78.1,149.0,-483.373,-483.246,27,0,0,-84.2,230.2,5.689,5.816*970e64ca
#INSPVAA,SPECIAL_30,0,32.5,FINESTEERING,1646,579480.200,00000000,5615,38836;1646,579480.195978000,42.483611912,-71.339437110,916.489680199,-69.859310359,8.192971251,-4.213356438,-10.761588515,-3.729157230,179.772545953,INS_SOLUTION_GOOD*4d02aacc
#INSPVAA,SPECIAL_30,0,32.5,FINESTEERING,1646,579480.400,00000000,5615,38836;1646,579480.395987000,42.483486109,-71.339416770,915.647979413,-69.880642627,8.471753840,-4.233368645,-10.607697834,-3.770347846,179.382659709,INS_SOLUTION_GOOD*86c54908
#INSPVAA,SPECIAL_30,0,32.5,FINESTEERING,1646,579480.600,00000000,5615,38836;1646,579480.596003000,42.483360271,-71.339395756,914.800429285,-69.901371441,8.748230148,-4.272292414,-10.575190109,-3.823735778,178.963743337,INS_SOLUTION_GOOD*69ff5c29
#INSPVAA,SPECIAL_30,0,32.5,FINESTEERING,1646,579480.800,00000000,5615,38836;1646,579480.796011000,42.483234400,-71.339374077,913.942691492,-69.920985022,9.018759482,-4.338198690,-10.543961933,-3.871864079,178.556875702,INS_SOLUTION_GOOD*4ae692a6
#BESTPOSA,SPECIAL_30,0,32.0,FINESTEERING,1646,579481.000,00000000,6145,38836;SOL_COMPUTED,OMNISTAR_HP,42.48313733801,-71.33934788024,943.6461,-28.5000,WGS84,0.0270,0.0346,0.0888,"1000",15.000,0.000,10,9,9,9,0,00,0,03*61a7233d
#BESTGPSPOSA,SPECIAL_30,0,32.0,FINESTEERING,1646,579481.000,00000000,af5b,38836;SOL_COMPUTED,OMNISTAR_HP,42.48313733801,-71.33934788024,943.6461,-28.5000,WGS84,0.0270,0.0346,0.0888,"1000",15.000,0.000,10,9,9,9,0,00,0,03*d8cb6b3d
#INSPVAA,SPECIAL_30,0,32.0,FINESTEERING,1646,579481.000,00000000,5615,38836;1646,579480.996027000,42.483108479,-71.339351757,913.078149605,-69.953106508,9.289469644,-4.350107927,-10.601116493,-3.884194990,178.152573439,INS_SOLUTION_GOOD*fc76cfbd
#INSCOVA,SPECIAL_30,0,32.0,FINESTEERING,1646,579481.044,00000000,0929,38836;1646,579481.000000000,0.0036112532735432,-0.0000013466399168,-0.0002833839190762,-0.0000013466399168,0.0036548292144920,0.0000529098995533,-0.0002833839190762,0.0000529098995533,0.0015630022418399,0.0001065798507363,-0.0000042263480232,0.0001466092140007,-0.0000042263480232,0.0000936242031386,-0.0000277420894211,0.0001466092140007,-0.0000277420894211,0.0013294438577356,0.0001311996652730,-0.0000007014424634,-0.0000179189483825,-0.0000007014424634,0.0001342152906096,0.0000025422943470,-0.0000179189483825,0.0000025422943470,0.0000142530499977*af576432
#COMCONFIGA,SPECIAL_30,0,31.0,FINESTEERING,1646,579481.077,00000000,85aa,38836;4,COM1,9600,N,8,1,N,OFF,ON,NOVATEL,NOVATEL,ON,COM2,230400,N,8,2,N,OFF,ON,NOVATEL,NOVATEL,OFF,COM3,115200,N,8,1,N,OFF,ON,IMU,IMU,OFF,AUX,115200,N,8,1,N,OFF,OFF,IMU,IMU,OFF*f09317c4
#TRACKSTATA,SPECIAL_30,0,32.0,FINESTEERING,1646,579481.000,00000000,457c,38836;SOL_COMPUTED,OMNISTAR_HP,0.0,23,23,0,08109c04,20744064.104,-1177.301,50.727,9268.250,-0.380,GOOD,1.653,23,0,01309c0b,20744059.028,-917.379,45.148,9252.900,0.000,OBSL2,0.000,16,0,18109c24,20587310.197,-1366.301,50.347,9274.350,-0.082,GOOD,3.571,16,0,11309c2b,20587306.328,-1064.648,47.645,9257.840,0.000,OBSL2,0.000,13,0,18109c44,20970079.673,714.762,50.632,5813.946,0.035,GOOD,1.389,13,0,11309c4b,20970076.769,556.957,45.422,5812.400,0.000,OBSL2,0.000,7,0,08109c64,24109105.156,2976.199,46.458,1263.220,0.538,GOOD,0.542,7,0,01309c6b,24109104.434,2319.125,38.412,1261.680,0.000,OBSL2,0.000,6,0,08109c84,20656082.401,291.844,50.433,8803.260,0.152,GOOD,2.795,6,0,01309c8b,20656079.855,227.406,45.524,8803.260,0.000,OBSL2,0.000,3,0,18109ca4,20097642.620,1659.707,50.640,6348.470,0.141,GOOD,2.752,3,0,11309cab,20097640.145,1293.277,44.583,6348.460,0.000,OBSL2,0.000,19,0,08109cc4,22264941.583,3645.887,49.386,2143.280,-0.070,GOOD,0.735,19,0,01309ccb,22264937.770,2840.945,45.281,2143.300,0.000,OBSL2,0.000,21,0,18109ce4,25180477.211,508.219,46.061,219.230,-0.421,GOOD,0.515,21,0,11309ceb,25180476.495,396.016,39.645,216.720,0.000,OBSL2,0.000,10,0,18109d04,25130477.574,-1111.832,35.659,18.550,0.022,GOOD,0.450,10,0,11309d0b,25130476.322,-866.363,31.284,3.420,0.000,OBSL2,0.000,31,0,08109d24,24455631.225,-2742.605,49.430,9262.570,0.049,GOOD,0.526,31,0,01309d2b,24455631.131,-2137.098,45.118,9245.820,0.000,OBSL2,0.000,0,0,0c022140,0.000,0.000,0.000,0.000,0.000,NA,0.000,0,0,0c022160,0.000,0.000,0.000,0.000,0.000,NA,0.000,0,0,0a671584,0.000,116.875,41.820,9273.616,0.000,NA,0.000*54483e84
#SATVISA,SPECIAL_30,0,32.0,FINESTEERING,1646,579481.000,00000000,0947,38836;TRUE,TRUE,30,16,0,0,68.3,32.7,-1366.479,-1366.234,6,0,0,65.2,112.7,293.506,293.751,3,0,0,65.0,156.9,1662.001,1662.246,23,0,0,56.8,231.2,-1178.563,-1178.317,13,0,0,53.4,287.2,712.637,712.882,19,0,0,34.6,180.8,3646.688,3646.933,7,0,0,16.5,302.0,2977.768,2978.013,31,0,0,13.3,113.7,-2741.914,-2741.669,21,0,0,10.6,62.1,509.352,509.597,10,0,0,5.9,305.3,-1114.577,-1114.331,20,0,0,-3.5,221.8,-2346.254,-2346.009,5,0,0,-6.2,350.3,918.182,918.427,8,0,0,-6.3,296.0,2960.156,2960.402,32,0,0,-7.0,200.9,-2035.295,-2035.050,11,0,0,-11.0,188.6,3132.384,3132.629,29,0,0,-12.1,28.9,-3852.646,-3852.401,24,0,0,-22.2,195.7,1788.006,1788.252,28,0,0,-25.8,244.4,2696.005,2696.250,2,0,0,-27.7,327.9,-2748.569,-2748.323,22,0,0,-31.7,118.3,867.655,867.900,18,0,0,-32.2,82.6,1662.028,1662.273,14,0,0,-32.6,145.1,-2670.955,-2670.710,25,0,0,-36.0,73.9,-2518.784,-2518.539,4,0,0,-36.8,287.5,-2170.715,-2170.469,26,0,0,-42.4,348.3,3114.270,3114.516,17,0,0,-56.4,234.5,1532.535,1532.780,15,0,0,-60.1,17.2,1741.499,1741.745,12,0,0,-61.1,81.8,-1312.395,-1312.149,9,0,0,-78.1,149.0,-481.150,-480.905,27,0,0,-84.2,230.3,6.467,6.712*5da6ba57
#INSPVAA,SPECIAL_30,0,32.0,FINESTEERING,1646,579481.200,00000000,5615,38836;1646,579481.196027000,42.482982471,-71.339328744,912.213564047,-69.996252719,9.609828643,-4.292056665,-10.866041514,-3.886626601,177.729207777,INS_SOLUTION_GOOD*9c2ebfd0
#INSPVAA,SPECIAL_30,0,32.0,FINESTEERING,1646,579481.400,00000000,5615,38836;1646,579481.396049000,42.482856443,-71.339305019,911.356013585,-70.018627964,9.916496758,-4.312006675,-11.083536984,-3.950101119,177.312823553,INS_SOLUTION_GOOD*ce658d8e
#INSPVAA,SPECIAL_30,0,32.0,FINESTEERING,1646,579481.600,00000000,5615,38836;1646,579481.596062000,42.482730389,-71.339280572,910.489871099,-70.036906720,10.220967403,-4.356541177,-11.241887265,-4.020051236,176.948685462,INS_SOLUTION_GOOD*d6c3067f
#INSPVAA,SPECIAL_30,0,32.0,FINESTEERING,1646,579481.800,00000000,5615,38836;1646,579481.796070000,42.482604301,-71.339255391,909.616959293,-70.060692473,10.536090993,-4.383356111,-11.277489722,-4.043584289,176.645362145,INS_SOLUTION_GOOD*11b3027f
#BESTPOSA,SPECIAL_30,0,32.0,FINESTEERING,1646,579482.000,00000000,6145,38836;SOL_COMPUTED,OMNISTAR_HP,42.48250712430,-71.33922660414,939.3062,-28.5000,WGS84,0.0271,0.0347,0.0892,"1000",16.000,0.000,10,9,9,9,0,00,0,03*98ddea2a
#BESTGPSPOSA,SPECIAL_30,0,32.0,FINESTEERING,1646,579482.000,00000000,af5b,38836;SOL_COMPUTED,OMNISTAR_HP,42.48250712430,-71.33922660414,939.3062,-28.5000,WGS84,0.0271,0.0347,0.0892,"1000",16.000,0.000,10,9,9,9,0,00,0,03*21b1a22a
#INSPVAA,SPECIAL_30,0,32.0,FINESTEERING,1646,579482.000,00000000,5615,38836;1646,579481.996083000,42.482478177,-71.339229472,908.740141926,-70.079945759,10.843121639,-4.399876157,-11.251332589,-4.044193490,176.388150775,INS_SOLUTION_GOOD*e4aa086d
#INSCOVA,SPECIAL_30,0,32.0,FINESTEERING,1646,579482.046,00000000,0929,38836;1646,579482.000000000,0.0036118630652581,-0.0000018701143026,-0.0002909404482996,-0.0000018701143026,0.0036586276284700,0.0000506574499114,-0.0002909404482996,0.0000506574499114,0.0015650082568304,0.0001072181138547,-0.0000040643090227,0.0001493742980136,-0.0000040643090227,0.0000934984249527,-0.0000253036620985,0.0001493742980136,-0.0000253036620985,0.0013363895616808,0.0001305402890319,-0.0000005985946352,-0.0000179139082787,-0.0000005985946352,0.0001334377353068,0.0000023912715131,-0.0000179139082787,0.0000023912715131,0.0000142602126141*feee9e6c
#TRACKSTATA,SPECIAL_30,0,32.0,FINESTEERING,1646,579482.000,00000000,457c,38836;SOL_COMPUTED,OMNISTAR_HP,0.0,23,23,0,08109c04,20744288.482,-1181.414,50.884,9269.250,-0.402,GOOD,1.662,23,0,01309c0b,20744283.407,-920.582,45.316,9253.900,0.000,OBSL2,0.000,16,0,18109c24,20587570.086,-1365.480,50.320,9275.350,-0.024,GOOD,3.616,16,0,11309c2b,20587566.222,-1064.012,47.467,9258.840,0.000,OBSL2,0.000,13,0,18109c44,20969944.154,709.273,50.230,5814.946,0.012,GOOD,1.402,13,0,11309c4b,20969941.254,552.684,44.725,5813.400,0.000,OBSL2,0.000,7,0,08109c64,24108539.455,2969.059,46.742,1264.220,0.527,GOOD,0.543,7,0,01309c6b,24108538.747,2313.566,37.147,1262.680,0.000,OBSL2,0.000,6,0,08109c84,20656026.628,294.004,50.151,8804.260,0.091,GOOD,2.823,6,0,01309c8b,20656024.069,229.090,45.481,8804.260,0.000,OBSL2,0.000,3,0,18109ca4,20097326.700,1660.199,50.736,6349.470,0.126,GOOD,2.779,3,0,11309cab,20097324.218,1293.660,45.321,6349.460,0.000,OBSL2,0.000,19,0,08109cc4,22264247.806,3645.520,50.069,2144.280,0.078,GOOD,0.737,19,0,01309ccb,22264243.984,2840.660,46.133,2144.300,0.000,OBSL2,0.000,21,0,18109ce4,25180379.917,514.262,46.772,220.230,-0.472,GOOD,0.517,21,0,11309ceb,25180379.196,400.719,38.902,217.720,0.000,OBSL2,0.000,10,0,18109d04,25130689.975,-1119.891,34.460,19.550,-0.001,GOOD,0.439,10,0,11309d0b,25130688.300,-872.641,29.357,4.420,0.000,OBSL2,0.000,31,0,08109d24,24456152.438,-2735.480,48.831,9263.570,0.063,GOOD,0.527,31,0,01309d2b,24456152.351,-2131.551,44.819,9246.820,0.000,OBSL2,0.000,0,0,0c022140,0.000,0.000,0.000,0.000,0.000,NA,0.000,0,0,0c022160,0.000,0.000,0.000,0.000,0.000,NA,0.000,0,0,0a671584,0.000,113.242,42.594,9274.615,0.000,NA,0.000*0a81170b
#SATVISA,SPECIAL_30,0,32.0,FINESTEERING,1646,579482.000,00000000,0947,38836;TRUE,TRUE,30,16,0,0,68.3,32.7,-1365.307,-1365.330,6,0,0,65.2,112.7,296.055,296.032,3,0,0,65.0,156.9,1662.863,1662.839,23,0,0,56.8,231.2,-1182.337,-1182.360,13,0,0,53.4,287.2,707.394,707.371,19,0,0,34.6,180.8,3646.659,3646.635,7,0,0,16.5,302.0,2970.866,2970.843,31,0,0,13.3,113.7,-2734.533,-2734.557,21,0,0,10.6,62.1,515.654,515.631,10,0,0,5.9,305.3,-1121.936,-1121.960,20,0,0,-3.5,221.8,-2351.023,-2351.047,5,0,0,-6.2,350.3,915.787,915.764,8,0,0,-6.3,296.0,2952.738,2952.714,32,0,0,-7.0,200.9,-2037.378,-2037.401,11,0,0,-10.9,188.6,3132.071,3132.047,29,0,0,-12.1,28.9,-3849.251,-3849.274,24,0,0,-22.2,195.7,1786.923,1786.899,28,0,0,-25.8,244.5,2689.559,2689.535,2,0,0,-27.7,327.9,-2752.841,-2752.864,22,0,0,-31.7,118.3,874.284,874.260,18,0,0,-32.2,82.6,1668.932,1668.908,14,0,0,-32.6,145.1,-2666.444,-2666.467,25,0,0,-36.0,73.9,-2512.376,-2512.400,4,0,0,-36.8,287.5,-2176.775,-2176.798,26,0,0,-42.4,348.3,3112.789,3112.765,17,0,0,-56.3,234.5,1529.415,1529.392,15,0,0,-60.1,17.2,1742.654,1742.631,12,0,0,-61.1,81.8,-1308.326,-1308.349,9,0,0,-78.1,149.0,-480.042,-480.066,27,0,0,-84.2,230.3,5.978,5.954*fd479890
#INSPVAA,SPECIAL_30,0,32.0,FINESTEERING,1646,579482.200,00000000,5615,38836;1646,579482.196071000,42.482352013,-71.339202790,907.849451014,-70.088348633,11.132549388,-4.406864744,-11.267824844,-4.057010002,176.139591824,INS_SOLUTION_GOOD*d9abc977
#INSPVAA,SPECIAL_30,0,32.0,FINESTEERING,1646,579482.400,00000000,5615,38836;1646,579482.396089000,42.482225824,-71.339175349,906.973843830,-70.106389818,11.461866356,-4.370796808,-11.413845430,-4.066692585,175.890811811,INS_SOLUTION_GOOD*1ef24e6b
#INSPVAA,SPECIAL_30,0,32.0,FINESTEERING,1646,579482.600,00000000,5615,38836;1646,579482.596101000,42.482099612,-71.339147108,906.104277760,-70.118910915,11.801134927,-4.340150746,-11.584510659,-4.083833934,175.655103275,INS_SOLUTION_GOOD*087e73d1
#INSPVAA,SPECIAL_30,0,32.0,FINESTEERING,1646,579482.800,00000000,5615,38836;1646,579482.796115000,42.481973373,-71.339118041,905.241950947,-70.135097794,12.140653880,-4.312792764,-11.772963652,-4.101280468,175.420919422,INS_SOLUTION_GOOD*401f06f6
#BESTPOSA,SPECIAL_30,0,32.0,FINESTEERING,1646,579483.000,00000000,6145,38836;SOL_COMPUTED,OMNISTAR_HP,42.48187604565,-71.33908568730,934.9531,-28.5000,WGS84,0.0259,0.0335,0.0842,"1000",7.000,0.000,10,9,9,9,0,00,0,03*1850f13d
#BESTGPSPOSA,SPECIAL_30,0,32.0,FINESTEERING,1646,579483.000,00000000,af5b,38836;SOL_COMPUTED,OMNISTAR_HP,42.48187604565,-71.33908568730,934.9531,-28.5000,WGS84,0.0259,0.0335,0.0842,"1000",7.000,0.000,10,9,9,9,0,00,0,03*12ccf84b
#INSPVAA,SPECIAL_30,0,32.0,FINESTEERING,1646,579483.000,00000000,5615,38836;1646,579482.996130000,42.481847118,-71.339088164,904.378697122,-70.138024402,12.472423705,-4.350119200,-11.927495924,-4.125918150,175.203301658,INS_SOLUTION_GOOD*3e1e70e7
#INSCOVA,SPECIAL_30,0,32.0,FINESTEERING,1646,579483.045,00000000,0929,38836;1646,579483.000000000,0.0036102765640313,-0.0000019793300545,-0.0002973255904474,-0.0000019793300545,0.0036593177326228,0.0000484335304779,-0.0002973255904474,0.0000484335304779,0.0015667784385437,0.0001078849173454,-0.0000038909824779,0.0001522602280016,-0.0000038909824779,0.0000933652000908,-0.0000228398451041,0.0001522602280016,-0.0000228398451041,0.0013432357882708,0.0001301754272115,-0.0000005453258408,-0.0000180743065135,-0.0000005453258408,0.0001331554736502,0.0000022720471632,-0.0000180743065135,0.0000022720471632,0.0000143124680011*8e7edfc5
#TRACKSTATA,SPECIAL_30,0,32.0,FINESTEERING,1646,579483.000,00000000,457c,38836;SOL_COMPUTED,OMNISTAR_HP,0.0,23,23,0,08109c04,20744513.656,-1185.383,50.933,9270.250,-0.400,GOOD,1.662,23,0,01309c0b,20744508.577,-923.680,45.828,9254.900,0.000,OBSL2,0.000,16,0,18109c24,20587829.784,-1364.086,50.182,9276.350,-0.026,GOOD,3.612,16,0,11309c2b,20587825.922,-1062.926,47.468,9259.840,0.000,OBSL2,0.000,13,0,18109c44,20969809.700,703.738,49.669,5815.946,0.020,GOOD,1.401,13,0,11309c4b,20969806.797,548.371,44.058,5814.400,0.000,OBSL2,0.000,7,0,08109c64,24107975.110,2961.941,46.324,1265.220,0.565,GOOD,0.543,7,0,01309c6b,24107974.393,2308.023,37.462,1263.680,0.000,OBSL2,0.000,6,0,08109c84,20655970.386,296.793,49.685,8805.260,0.098,GOOD,2.819,6,0,01309c8b,20655967.838,231.262,45.489,8805.260,0.000,OBSL2,0.000,3,0,18109ca4,20097010.661,1661.250,50.555,6350.470,0.113,GOOD,2.776,3,0,11309cab,20097008.166,1294.477,45.430,6350.460,0.000,OBSL2,0.000,19,0,08109cc4,22263554.077,3645.531,49.830,2145.280,0.091,GOOD,0.737,19,0,01309ccb,22263550.247,2840.672,46.593,2145.300,0.000,OBSL2,0.000,21,0,18109ce4,25180281.386,521.207,46.124,221.230,-0.463,GOOD,0.516,21,0,11309ceb,25180280.616,406.129,37.987,218.720,0.000,OBSL2,0.000,10,0,18109d04,25130903.880,-1128.109,34.992,20.550,-0.059,GOOD,0.448,10,0,11309d0b,25130900.692,-878.848,36.172,5.420,0.000,OBSL2,0.000,31,0,08109d24,24456672.224,-2727.523,48.403,9264.570,0.063,GOOD,0.527,31,0,01309d2b,24456672.150,-2125.352,44.456,9247.820,0.000,OBSL2,0.000,0,0,0c022140,0.000,0.000,0.000,0.000,0.000,NA,0.000,0,0,0c022160,0.000,0.000,0.000,0.000,0.000,NA,0.000,0,0,0a671584,0.000,108.918,42.834,9275.615,0.000,NA,0.000*32194757
#SATVISA,SPECIAL_30,0,32.0,FINESTEERING,1646,579483.000,00000000,0947,38836;TRUE,TRUE,30,16,0,0,68.2,32.7,-1363.923,-1363.934,6,0,0,65.2,112.6,298.916,298.905,3,0,0,65.0,156.9,1663.895,1663.884,23,0,0,56.8,231.2,-1186.311,-1186.321,13,0,0,53.5,287.1,701.871,701.860,19,0,0,34.7,180.8,3646.652,3646.642,7,0,0,16.5,302.0,2963.499,2963.489,31,0,0,13.3,113.7,-2726.591,-2726.602,21,0,0,10.6,62.1,522.517,522.506,10,0,0,5.9,305.2,-1129.779,-1129.789,20,0,0,-3.5,221.8,-2356.222,-2356.233,5,0,0,-6.2,350.3,913.299,913.288,8,0,0,-6.3,296.0,2944.768,2944.758,32,0,0,-7.0,200.9,-2039.708,-2039.719,11,0,0,-10.9,188.5,3131.632,3131.622,29,0,0,-12.1,28.9,-3845.563,-3845.573,24,0,0,-22.2,195.7,1785.635,1785.625,28,0,0,-25.8,244.5,2682.565,2682.554,2,0,0,-27.7,327.9,-2757.427,-2757.437,22,0,0,-31.7,118.3,881.325,881.314,18,0,0,-32.2,82.6,1676.312,1676.302,14,0,0,-32.6,145.1,-2661.695,-2661.706,25,0,0,-36.0,73.9,-2505.533,-2505.543,4,0,0,-36.8,287.5,-2183.351,-2183.361,26,0,0,-42.4,348.3,3111.173,3111.163,17,0,0,-56.3,234.5,1525.940,1525.930,15,0,0,-60.1,17.2,1743.838,1743.828,12,0,0,-61.1,81.8,-1304.034,-1304.045,9,0,0,-78.1,149.1,-478.956,-478.966,27,0,0,-84.2,230.4,5.354,5.344*ca4d8991
#INSPVAA,SPECIAL_30,0,32.0,FINESTEERING,1646,579483.200,00000000,5615,38836;1646,579483.196134000,42.481720831,-71.339057411,903.497916087,-70.138510212,12.790222356,-4.358564820,-11.956941343,-4.128006378,174.995006417,INS_SOLUTION_GOOD*d488abb6
#INSPVAA,SPECIAL_30,0,27.0,FINESTEERING,1646,579483.400,00000000,5615,38836;1646,579483.396148000,42.481594568,-71.339025870,902.624413307,-70.141975338,13.135251185,-4.359135817,-11.851991545,-4.102413667,174.799097936,INS_SOLUTION_GOOD*ba684342
#INSPVAA,SPECIAL_30,0,27.0,FINESTEERING,1646,579483.600,00000000,5615,38836;1646,579483.596160000,42.481468286,-71.338993541,901.757087301,-70.158154408,13.454199521,-4.313373619,-11.923145313,-4.072552149,174.599842118,INS_SOLUTION_GOOD*6c75cd33
#INSPVAA,SPECIAL_30,0,27.0,FINESTEERING,1646,579483.800,00000000,5615,38836;1646,579483.796177000,42.481341963,-71.338960419,900.908757390,-70.180140513,13.801618603,-4.193430103,-12.132882730,-4.030420942,174.392404072,INS_SOLUTION_GOOD*684dbdc0
#BESTPOSA,SPECIAL_30,0,27.0,FINESTEERING,1646,579484.000,00000000,6145,38836;SOL_COMPUTED,OMNISTAR_HP,42.48124463135,-71.33892441575,930.6586,-28.5000,WGS84,0.0260,0.0336,0.0845,"1000",8.000,0.000,10,9,9,9,0,00,0,03*79e349d7
#BESTGPSPOSA,SPECIAL_30,0,27.0,FINESTEERING,1646,579484.000,00000000,af5b,38836;SOL_COMPUTED,OMNISTAR_HP,42.48124463135,-71.33892441575,930.6586,-28.5000,WGS84,0.0260,0.0336,0.0845,"1000",8.000,0.000,10,9,9,9,0,00,0,03*737f40a1
#INSPVAA,SPECIAL_30,0,27.0,FINESTEERING,1646,579484.000,00000000,5615,38836;1646,579483.996191000,42.481215594,-71.338926387,900.090362490,-70.213663048,14.155881311,-3.996101192,-12.222480365,-4.018039241,174.150382540,INS_SOLUTION_GOOD*9f1c8544
#INSCOVA,SPECIAL_30,0,27.0,FINESTEERING,1646,579484.045,00000000,0929,38836;1646,579484.000000000,0.0036079491583608,-0.0000019582455392,-0.0003032422040704,-0.0000019582455392,0.0036591713906951,0.0000462913273145,-0.0003032422040704,0.0000462913273145,0.0015684693560538,0.0001085768595393,-0.0000037090415508,0.0001551978175965,-0.0000037090415508,0.0000932420595204,-0.0000203922772132,0.0001551978175965,-0.0000203922772132,0.0013500857387709,0.0001301507900444,-0.0000005661229548,-0.0000183876641197,-0.0000005661229548,0.0001333234643932,0.0000021235596111,-0.0000183876641197,0.0000021235596111,0.0000144032074011*b8d833d4
#TRACKSTATA,SPECIAL_30,0,27.0,FINESTEERING,1646,579484.000,00000000,457c,38836;SOL_COMPUTED,OMNISTAR_HP,0.0,23,23,0,08109c04,20744739.608,-1188.172,50.872,9271.250,-0.407,GOOD,1.661,23,0,01309c0b,20744734.523,-925.855,45.537,9255.900,0.000,OBSL2,0.000,16,0,18109c24,20588089.190,-1361.117,50.153,9277.350,-0.028,GOOD,3.607,16,0,11309c2b,20588085.324,-1060.609,47.037,9260.840,0.000,OBSL2,0.000,13,0,18109c44,20969676.289,699.418,49.646,5816.946,0.024,GOOD,1.399,13,0,11309c4b,20969673.384,545.004,43.422,5815.400,0.000,OBSL2,0.000,7,0,08109c64,24107412.180,2955.020,45.727,1266.220,0.574,GOOD,0.542,7,0,01309c6b,24107411.468,2302.621,38.084,1264.680,0.000,OBSL2,0.000,6,0,08109c84,20655913.597,301.277,50.084,8806.260,0.102,GOOD,2.817,6,0,01309c8b,20655911.069,234.758,46.088,8806.260,0.000,OBSL2,0.000,3,0,18109ca4,20096694.422,1663.730,50.298,6351.470,0.113,GOOD,2.773,3,0,11309cab,20096691.938,1296.410,45.554,6351.460,0.000,OBSL2,0.000,19,0,08109cc4,22262860.402,3646.211,49.841,2146.280,0.094,GOOD,0.737,19,0,01309ccb,22262856.569,2841.203,46.635,2146.300,0.000,OBSL2,0.000,21,0,18109ce4,25180181.545,528.465,46.517,222.230,-0.469,GOOD,0.516,21,0,11309ceb,25180180.768,411.781,38.219,219.720,0.000,OBSL2,0.000,10,0,18109d04,25131119.208,-1134.953,37.447,21.550,-0.059,GOOD,0.472,10,0,11309d0b,25131117.629,-884.387,28.193,6.420,0.000,OBSL2,0.000,31,0,08109d24,24457190.527,-2718.965,48.097,9265.570,0.063,GOOD,0.527,31,0,01309d2b,24457190.449,-2118.680,44.372,9248.820,0.000,OBSL2,0.000,0,0,0c022140,0.000,0.000,0.000,0.000,0.000,NA,0.000,0,0,0c022160,0.000,0.000,0.000,0.000,0.000,NA,0.000,0,0,0a671584,0.000,105.918,43.403,9276.615,0.000,NA,0.000*5594cfe8
#SATVISA,SPECIAL_30,0,27.0,FINESTEERING,1646,579484.000,00000000,0947,38836;TRUE,TRUE,30,16,0,0,68.2,32.7,-1361.157,-1361.085,6,0,0,65.2,112.6,303.042,303.114,3,0,0,65.0,156.9,1666.111,1666.183,23,0,0,56.8,231.1,-1189.262,-1189.190,13,0,0,53.5,287.1,697.427,697.499,19,0,0,34.7,180.8,3647.240,3647.311,7,0,0,16.5,302.0,2956.542,2956.614,31,0,0,13.3,113.7,-2718.312,-2718.240,21,0,0,10.6,62.1,529.847,529.919,10,0,0,5.9,305.2,-1137.449,-1137.377,20,0,0,-3.5,221.8,-2361.759,-2361.687,5,0,0,-6.2,350.2,910.865,910.937,8,0,0,-6.3,296.0,2936.637,2936.709,32,0,0,-7.0,200.9,-2042.464,-2042.392,11,0,0,-10.9,188.5,3130.690,3130.762,29,0,0,-12.1,28.9,-3841.907,-3841.835,24,0,0,-22.2,195.7,1783.592,1783.664,28,0,0,-25.8,244.5,2674.776,2674.848,2,0,0,-27.7,327.9,-2762.542,-2762.470,22,0,0,-31.7,118.3,887.643,887.715,18,0,0,-32.2,82.6,1683.087,1683.158,14,0,0,-32.6,145.1,-2657.790,-2657.718,25,0,0,-36.0,73.9,-2499.353,-2499.281,4,0,0,-36.8,287.5,-2190.793,-2190.721,26,0,0,-42.4,348.3,3108.775,3108.847,17,0,0,-56.3,234.5,1521.185,1521.257,15,0,0,-60.1,17.2,1743.952,1744.024,12,0,0,-61.1,81.8,-1300.878,-1300.806,9,0,0,-78.1,149.1,-479.251,-479.179,27,0,0,-84.2,230.4,3.330,3.402*4d405c7e
#INSPVAA,SPECIAL_30,0,27.0,FINESTEERING,1646,579484.200,00000000,5615,38836;1646,579484.196183000,42.481089179,-71.338891494,899.280170131,-70.208426542,14.441489309,-4.006399421,-12.170402335,-4.077967657,173.918151494,INS_SOLUTION_GOOD*c818e1c7
#INSPVAA,SPECIAL_30,0,27.0,FINESTEERING,1646,579484.400,00000000,5615,38836;1646,579484.396189000,42.480962809,-71.338855886,898.460815558,-70.184649519,14.733011767,-4.132233856,-12.117712708,-4.146164415,173.495960072,INS_SOLUTION_GOOD*c624ac80
#INSPVAA,SPECIAL_30,0,27.0,FINESTEERING,1646,579484.600,00000000,5615,38836;1646,579484.596205000,42.480836471,-71.338819520,897.612119196,-70.154283327,15.019834768,-4.333405008,-12.140838581,-4.174408632,172.933001245,INS_SOLUTION_GOOD*32da1fc0
#INSPVAA,SPECIAL_30,0,32.5,FINESTEERING,1646,579484.800,00000000,5615,38836;1646,579484.796215000,42.480710183,-71.338782413,896.724293896,-70.124768448,15.322789551,-4.525003586,-12.225559860,-4.135381292,172.320186270,INS_SOLUTION_GOOD*0986529e
#BESTPOSA,SPECIAL_30,0,27.0,FINESTEERING,1646,579485.000,00000000,6145,38836;SOL_COMPUTED,OMNISTAR_HP,42.48061299682,-71.33874411799,926.3918,-28.5000,WGS84,0.0261,0.0337,0.0849,"1000",9.000,0.000,10,9,9,9,0,00,0,03*c360ad4c
#BESTGPSPOSA,SPECIAL_30,0,27.0,FINESTEERING,1646,579485.000,00000000,af5b,38836;SOL_COMPUTED,OMNISTAR_HP,42.48061299682,-71.33874411799,926.3918,-28.5000,WGS84,0.0261,0.0337,0.0849,"1000",9.000,0.000,10,9,9,9,0,00,0,03*c9fca43a
#INSPVAA,SPECIAL_30,0,32.5,FINESTEERING,1646,579485.000,00000000,5615,38836;1646,579484.996231000,42.480583938,-71.338744594,895.810248814,-70.099405479,15.639745961,-4.648492719,-12.545825838,-4.063747425,171.731103043,INS_SOLUTION_GOOD*7ed1075a
#INSCOVA,SPECIAL_30,0,27.0,FINESTEERING,1646,579485.044,00000000,0929,38836;1646,579485.000000000,0.0036058718314290,-0.0000020528454632,-0.0003091346189840,-0.0000020528454632,0.0036595161525585,0.0000440893214514,-0.0003091346189840,0.0000440893214514,0.0015701767396024,0.0001092948900759,-0.0000035202151302,0.0001581839905241,-0.0000035202151302,0.0000931313360151,-0.0000179774915532,0.0001581839905241,-0.0000179774915532,0.0013569585147298,0.0001308744532106,-0.0000005667147165,-0.0000187716808430,-0.0000005667147165,0.0001342500801013,0.0000019946556607,-0.0000187716808430,0.0000019946556607,0.0000145009485805*665832b4
#TRACKSTATA,SPECIAL_30,0,27.0,FINESTEERING,1646,579485.000,00000000,457c,38836;SOL_COMPUTED,OMNISTAR_HP,0.0,23,23,0,08109c04,20744966.310,-1195.121,49.918,9272.250,-0.403,GOOD,1.659,23,0,01309c0b,20744961.221,-931.270,44.053,9256.900,0.000,OBSL2,0.000,16,0,18109c24,20588348.351,-1362.891,50.232,9278.350,-0.027,GOOD,3.602,16,0,11309c2b,20588344.490,-1061.992,47.121,9261.840,0.000,OBSL2,0.000,13,0,18109c44,20969543.883,691.641,49.642,5817.946,0.027,GOOD,1.398,13,0,11309c4b,20969540.978,538.941,44.073,5816.400,0.000,OBSL2,0.000,7,0,08109c64,24106850.534,2947.805,45.123,1267.220,0.599,GOOD,0.542,7,0,01309c6b,24106849.845,2296.996,38.760,1265.680,0.000,OBSL2,0.000,6,0,08109c84,20655856.343,300.125,50.357,8807.260,0.097,GOOD,2.815,6,0,01309c8b,20655853.826,233.863,45.883,8807.260,0.000,OBSL2,0.000,3,0,18109ca4,20096378.050,1660.770,50.567,6352.470,0.112,GOOD,2.770,3,0,11309cab,20096375.560,1294.102,45.421,6352.460,0.000,OBSL2,0.000,19,0,08109cc4,22262166.805,3643.090,50.055,2147.280,0.092,GOOD,0.737,19,0,01309ccb,22262162.976,2838.770,46.910,2147.300,0.000,OBSL2,0.000,21,0,18109ce4,25180080.449,534.590,46.682,223.230,-0.461,GOOD,0.516,21,0,11309ceb,25180079.646,416.551,39.398,220.720,0.000,OBSL2,0.000,10,0,18109d04,25131335.957,-1142.219,38.845,22.550,-0.095,GOOD,0.482,10,0,11309d0b,25131335.313,-890.047,26.103,7.420,0.000,OBSL2,0.000,31,0,08109d24,24457707.438,-2713.383,48.158,9266.570,0.070,GOOD,0.527,31,0,01309d2b,24457707.369,-2114.328,44.615,9249.820,0.000,OBSL2,0.000,0,0,0c022140,0.000,0.000,0.000,0.000,0.000,NA,0.000,0,0,0c022160,0.000,0.000,0.000,0.000,0.000,NA,0.000,0,0,0a671584,0.000,99.496,42.973,9277.615,0.000,NA,0.000*3f1b78ae
#SATVISA,SPECIAL_30,0,27.0,FINESTEERING,1646,579485.000,00000000,0947,38836;TRUE,TRUE,30,16,0,0,68.2,32.7,-1362.766,-1362.867,6,0,0,65.2,112.6,302.219,302.118,3,0,0,65.0,156.8,1663.381,1663.280,23,0,0,56.8,231.1,-1196.166,-1196.268,13,0,0,53.5,287.1,689.864,689.762,19,0,0,34.7,180.8,3644.255,3644.154,7,0,0,16.5,302.0,2949.563,2949.462,31,0,0,13.3,113.7,-2712.457,-2712.558,21,0,0,10.6,62.1,535.859,535.757,10,0,0,5.9,305.2,-1144.199,-1144.301,20,0,0,-3.5,221.8,-2367.071,-2367.172,5,0,0,-6.2,350.2,910.116,910.014,8,0,0,-6.3,296.1,2930.398,2930.296,32,0,0,-7.0,200.9,-2045.202,-2045.304,11,0,0,-10.9,188.5,3129.831,3129.729,29,0,0,-12.1,28.9,-3836.858,-3836.960,24,0,0,-22.2,195.7,1782.726,1782.624,28,0,0,-25.8,244.5,2669.532,2669.430,2,0,0,-27.7,327.9,-2764.164,-2764.266,22,0,0,-31.7,118.3,895.317,895.216,18,0,0,-32.2,82.6,1691.685,1691.584,14,0,0,-32.6,145.1,-2652.480,-2652.582,25,0,0,-36.0,73.9,-2490.905,-2491.006,4,0,0,-36.8,287.5,-2194.310,-2194.412,26,0,0,-42.4,348.3,3110.522,3110.421,17,0,0,-56.3,234.5,1520.589,1520.487,15,0,0,-60.1,17.2,1748.589,1748.487,12,0,0,-61.1,81.8,-1293.913,-1294.015,9,0,0,-78.1,149.1,-475.105,-475.206,27,0,0,-84.2,230.5,6.127,6.026*fe2f0b35
#INSPVAA,SPECIAL_30,0,32.5,FINESTEERING,1646,579485.200,00000000,5615,38836;1646,579485.196231000,42.480457719,-71.338705870,894.866977113,-70.086539190,16.076328740,-4.727884724,-12.784700997,-3.997901469,171.199852269,INS_SOLUTION_GOOD*5c7f25ac
#INSPVAA,SPECIAL_30,0,32.5,FINESTEERING,1646,579485.400,00000000,5615,38836;1646,579485.396248000,42.480331584,-71.338666385,893.917489999,-70.067250673,16.445587253,-4.741405069,-12.831131953,-3.940457676,170.744482722,INS_SOLUTION_GOOD*80b7e4a4
#INSPVAA,SPECIAL_30,0,32.5,FINESTEERING,1646,579485.600,00000000,5615,38836;1646,579485.596257000,42.480205481,-71.338626033,892.970098276,-70.049738725,16.815341583,-4.716334745,-12.884862965,-3.887655167,170.333820761,INS_SOLUTION_GOOD*4d03db1c
#INSPVAA,SPECIAL_30,0,32.5,FINESTEERING,1646,579485.800,00000000,5615,38836;1646,579485.796268000,42.480079427,-71.338584740,892.027864191,-70.015903897,17.208345290,-4.695309076,-12.856760303,-3.840056457,169.932823062,INS_SOLUTION_GOOD*c2d929b6
#BESTPOSA,SPECIAL_30,0,32.5,FINESTEERING,1646,579486.000,00000000,6145,38836;SOL_COMPUTED,OMNISTAR_HP,42.47998250196,-71.33854357724,921.6559,-28.5000,WGS84,0.0262,0.0339,0.0852,"1000",10.000,0.000,10,9,9,9,0,00,0,03*0f5cd97f
#BESTGPSPOSA,SPECIAL_30,0,32.5,FINESTEERING,1646,579486.000,00000000,af5b,38836;SOL_COMPUTED,OMNISTAR_HP,42.47998250196,-71.33854357724,921.6559,-28.5000,WGS84,0.0262,0.0339,0.0852,"1000",10.000,0.000,10,9,9,9,0,00,0,03*b630917f
#INSPVAA,SPECIAL_30,0,34.0,FINESTEERING,1646,579486.000,00000000,5615,38836;1646,579485.996294000,42.479953461,-71.338542578,891.076123932,-69.966766910,17.540959766,-4.784037509,-12.695502082,-3.832567657,169.585516604,INS_SOLUTION_GOOD*402f0835
#INSCOVA,SPECIAL_30,0,32.5,FINESTEERING,1646,579486.043,00000000,0929,38836;1646,579486.000000000,0.0036057007998073,-0.0000021189620093,-0.0003148144755051,-0.0000021189620093,0.0036615479764374,0.0000417761344436,-0.0003148144755051,0.0000417761344436,0.0015718150267104,0.0001100363843022,-0.0000033229572778,0.0001612322973235,-0.0000033229572778,0.0000930250608205,-0.0000155843403906,0.0001612322973235,-0.0000155843403906,0.0013638253370922,0.0001291609768390,-0.0000006446105993,-0.0000186818165159,-0.0000006446105993,0.0001323808623204,0.0000016009114555,-0.0000186818165159,0.0000016009114555,0.0000145081256297*8b0b0c06
#COMCONFIGA,SPECIAL_30,0,27.0,FINESTEERING,1646,579486.081,00000000,85aa,38836;4,COM1,9600,N,8,1,N,OFF,ON,NOVATEL,NOVATEL,ON,COM2,230400,N,8,2,N,OFF,ON,NOVATEL,NOVATEL,OFF,COM3,115200,N,8,1,N,OFF,ON,IMU,IMU,OFF,AUX,115200,N,8,1,N,OFF,OFF,IMU,IMU,OFF*7b979025
#TRACKSTATA,SPECIAL_30,0,32.5,FINESTEERING,1646,579486.000,00000000,457c,38836;SOL_COMPUTED,OMNISTAR_HP,0.0,23,23,0,08109c04,20745194.197,-1200.277,49.987,9273.250,-0.392,GOOD,1.658,23,0,01309c0b,20745189.110,-935.289,44.100,9257.900,0.000,OBSL2,0.000,16,0,18109c24,20588607.581,-1361.574,50.248,9279.350,-0.024,GOOD,3.596,16,0,11309c2b,20588603.726,-1060.969,46.857,9262.840,0.000,OBSL2,0.000,13,0,18109c44,20969412.827,685.527,49.672,5818.946,0.031,GOOD,1.396,13,0,11309c4b,20969409.916,534.172,44.036,5817.400,0.000,OBSL2,0.000,7,0,08109c64,24106290.249,2940.555,46.652,1268.220,0.620,GOOD,0.542,7,0,01309c6b,24106289.592,2291.336,40.233,1266.680,0.000,OBSL2,0.000,6,0,08109c84,20655798.979,302.555,51.015,8808.260,0.094,GOOD,2.812,6,0,01309c8b,20655796.459,235.758,46.591,8808.260,0.000,OBSL2,0.000,3,0,18109ca4,20096061.980,1660.895,51.078,6353.470,0.099,GOOD,2.768,3,0,11309cab,20096059.479,1294.203,45.780,6353.460,0.000,OBSL2,0.000,19,0,08109cc4,22261473.608,3642.129,49.859,2148.280,0.107,GOOD,0.736,19,0,01309ccb,22261469.776,2838.023,46.284,2148.300,0.000,OBSL2,0.000,21,0,18109ce4,25179977.978,542.352,47.408,224.230,-0.447,GOOD,0.516,21,0,11309ceb,25179977.179,422.609,38.701,221.720,0.000,OBSL2,0.000,10,0,18109d04,25131554.067,-1149.555,37.271,23.550,-0.146,GOOD,0.473,10,0,11309d0b,25131550.637,-895.766,15.290,8.420,0.000,OBSL2,0.000,31,0,08109d24,24458222.996,-2705.230,49.166,9267.570,0.073,GOOD,0.527,31,0,01309d2b,24458222.934,-2107.977,44.752,9250.820,0.000,OBSL2,0.000,0,0,0c022140,0.000,0.000,0.000,0.000,0.000,NA,0.000,0,0,0c022160,0.000,0.000,0.000,0.000,0.000,NA,0.000,0,0,0a671584,0.000,96.719,41.276,9278.614,0.000,NA,0.000*75e64a5b
#SATVISA,SPECIAL_30,0,32.5,FINESTEERING,1646,579486.000,00000000,0947,38836;TRUE,TRUE,30,16,0,0,68.2,32.7,-1361.787,-1361.604,6,0,0,65.2,112.6,304.282,304.466,3,0,0,65.0,156.8,1663.248,1663.432,23,0,0,56.8,231.1,-1201.529,-1201.345,13,0,0,53.5,287.1,683.461,683.645,19,0,0,34.7,180.8,3642.827,3643.010,7,0,0,16.5,302.0,2942.024,2942.208,31,0,0,13.2,113.7,-2704.648,-2704.464,21,0,0,10.6,62.1,543.531,543.715,10,0,0,5.9,305.2,-1151.982,-1151.798,20,0,0,-3.5,221.8,-2373.385,-2373.201,5,0,0,-6.2,350.2,908.680,908.864,8,0,0,-6.3,296.1,2922.498,2922.682,32,0,0,-7.0,200.9,-2048.611,-2048.427,11,0,0,-10.9,188.5,3128.444,3128.628,29,0,0,-12.1,28.9,-3831.787,-3831.603,24,0,0,-22.2,195.7,1780.693,1780.877,28,0,0,-25.8,244.5,2662.061,2662.245,2,0,0,-27.7,327.9,-2767.778,-2767.594,22,0,0,-31.7,118.3,902.839,903.023,18,0,0,-32.2,82.6,1700.154,1700.338,14,0,0,-32.6,145.1,-2647.704,-2647.520,25,0,0,-36.0,73.9,-2482.836,-2482.652,4,0,0,-36.8,287.5,-2200.499,-2200.315,26,0,0,-42.3,348.3,3110.227,3110.411,17,0,0,-56.3,234.4,1517.286,1517.469,15,0,0,-60.1,17.2,1751.174,1751.358,12,0,0,-61.1,81.8,-1288.467,-1288.283,9,0,0,-78.1,149.1,-473.244,-473.060,27,0,0,-84.2,230.5,6.311,6.495*a4ef39de
#INSPVAA,SPECIAL_30,0,34.0,FINESTEERING,1646,579486.200,00000000,5615,38836;1646,579486.196288000,42.479827525,-71.338499541,890.095096159,-69.906532971,17.814053352,-4.924994652,-12.394906576,-3.784114756,169.276790896,INS_SOLUTION_GOOD*b5ec2c8f
#INSPVAA,SPECIAL_30,0,34.0,FINESTEERING,1646,579486.400,00000000,5615,38836;1646,579486.396299000,42.479701722,-71.338455802,889.100196259,-69.861099689,18.137692642,-5.001299615,-12.059313563,-3.709924394,168.913622177,INS_SOLUTION_GOOD*244c69c1
#INSPVAA,SPECIAL_30,0,34.0,FINESTEERING,1646,579486.600,00000000,5615,38836;1646,579486.596315000,42.479576007,-71.338411240,888.090822499,-69.817583589,18.465873838,-5.041346470,-11.648530585,-3.668694684,168.506785466,INS_SOLUTION_GOOD*b9381c3b
#INSPVAA,SPECIAL_30,0,34.0,FINESTEERING,1646,579486.800,00000000,5615,38836;1646,579486.796334000,42.479450374,-71.338365838,887.079686191,-69.771566943,18.810927262,-5.014784359,-11.140409819,-3.646424693,168.075771514,INS_SOLUTION_GOOD*ebae4066
#BESTPOSA,SPECIAL_30,0,34.0,FINESTEERING,1646,579487.000,00000000,6145,38836;SOL_COMPUTED,OMNISTAR_HP,42.47935371140,-71.33832294116,916.6653,-28.5000,WGS84,0.0263,0.0340,0.0855,"1000",11.000,0.000,10,9,9,9,0,00,0,03*7b6e58fa
#BESTGPSPOSA,SPECIAL_30,0,34.0,FINESTEERING,1646,579487.000,00000000,af5b,38836;SOL_COMPUTED,OMNISTAR_HP,42.47935371140,-71.33832294116,916.6653,-28.5000,WGS84,0.0263,0.0340,0.0855,"1000",11.000,0.000,10,9,9,9,0,00,0,03*c20210fa
#INSPVAA,SPECIAL_30,0,34.5,FINESTEERING,1646,579487.000,00000000,5615,38836;1646,579486.996345000,42.479324822,-71.338319634,886.071286035,-69.740646281,19.128771321,-4.984067872,-10.691475401,-3.686608975,167.633032423,INS_SOLUTION_GOOD*825034db
#INSCOVA,SPECIAL_30,0,34.0,FINESTEERING,1646,579487.043,00000000,0929,38836;1646,579487.000000000,0.0036002660217392,-0.0000026202909609,-0.0003194884765798,-0.0000026202909609,0.0036578794996426,0.0000386533834770,-0.0003194884765798,0.0000386533834770,0.0015732846166095,0.0001107799069500,-0.0000031138139606,0.0001643330135617,-0.0000031138139606,0.0000929010243404,-0.0000131936206699,0.0001643330135617,-0.0000131936206699,0.0013707079187051,0.0001288847280539,-0.0000008752678432,-0.0000190899830794,-0.0000008752678432,0.0001323408171661,0.0000012393427788,-0.0000190899830794,0.0000012393427788,0.0000146395641869*a2c052bb
#TRACKSTATA,SPECIAL_30,0,34.0,FINESTEERING,1646,579487.000,00000000,457c,38836;SOL_COMPUTED,OMNISTAR_HP,0.0,23,23,0,08109c04,20745423.151,-1205.379,49.118,9274.250,-0.378,GOOD,1.655,23,0,01309c0b,20745418.085,-939.262,43.644,9258.900,0.000,OBSL2,0.000,16,0,18109c24,20588866.711,-1360.695,50.339,9280.350,-0.020,GOOD,3.590,16,0,11309c2b,20588862.854,-1060.285,47.107,9263.840,0.000,OBSL2,0.000,13,0,18109c44,20969282.987,679.797,50.144,5819.946,0.029,GOOD,1.394,13,0,11309c4b,20969280.070,529.707,45.354,5818.400,0.000,OBSL2,0.000,7,0,08109c64,24105731.282,2934.191,47.092,1269.220,0.642,GOOD,0.542,7,0,01309c6b,24105730.625,2286.375,38.981,1267.680,0.000,OBSL2,0.000,6,0,08109c84,20655741.363,304.211,50.578,8809.260,0.088,GOOD,2.808,6,0,01309c8b,20655738.838,237.051,46.424,8809.260,0.000,OBSL2,0.000,3,0,18109ca4,20095746.056,1660.457,50.861,6354.470,0.092,GOOD,2.763,3,0,11309cab,20095743.558,1293.863,45.496,6354.460,0.000,OBSL2,0.000,19,0,08109cc4,22260780.800,3640.227,49.974,2149.280,0.106,GOOD,0.736,19,0,01309ccb,22260776.965,2836.539,45.468,2149.300,0.000,OBSL2,0.000,21,0,18109ce4,25179874.128,549.793,47.908,225.230,-0.439,GOOD,0.516,21,0,11309ceb,25179873.315,428.410,38.626,222.720,0.000,OBSL2,0.000,10,0,18109d04,25131773.508,-1156.395,40.421,24.550,-0.184,GOOD,0.490,10,0,11309d0b,25131770.097,-901.109,29.397,9.420,0.000,OBSL2,0.000,31,0,08109d24,24458737.201,-2698.305,48.580,9268.570,0.088,GOOD,0.526,31,0,01309d2b,24458737.128,-2102.578,44.077,9251.820,0.000,OBSL2,0.000,0,0,0c022140,0.000,0.000,0.000,0.000,0.000,NA,0.000,0,0,0c022160,0.000,0.000,0.000,0.000,0.000,NA,0.000,0,0,0a671584,0.000,89.887,41.766,9279.615,0.000,NA,0.000*0c23986c
#SATVISA,SPECIAL_30,0,34.0,FINESTEERING,1646,579487.000,00000000,0947,38836;TRUE,TRUE,30,16,0,0,68.2,32.7,-1361.011,-1360.628,6,0,0,65.2,112.6,305.752,306.135,3,0,0,65.0,156.8,1662.610,1662.993,23,0,0,56.8,231.1,-1206.834,-1206.452,13,0,0,53.5,287.1,677.495,677.878,19,0,0,34.7,180.8,3640.908,3641.290,7,0,0,16.6,302.0,2935.397,2935.780,31,0,0,13.2,113.8,-2697.863,-2697.481,21,0,0,10.6,62.1,550.615,550.997,10,0,0,5.9,305.2,-1158.789,-1158.406,20,0,0,-3.5,221.8,-2379.450,-2379.067,5,0,0,-6.2,350.2,907.881,908.264,8,0,0,-6.3,296.1,2915.622,2916.005,32,0,0,-7.0,200.9,-2052.122,-2051.740,11,0,0,-10.9,188.5,3126.760,3127.143,29,0,0,-12.1,28.9,-3826.688,-3826.305,24,0,0,-22.2,195.7,1778.531,1778.914,28,0,0,-25.8,244.5,2655.208,2655.590,2,0,0,-27.7,327.9,-2770.527,-2770.144,22,0,0,-31.7,118.3,909.602,909.985,18,0,0,-32.2,82.6,1708.030,1708.413,14,0,0,-32.6,145.1,-2643.584,-2643.201,25,0,0,-36.0,73.9,-2475.241,-2474.858,4,0,0,-36.8,287.5,-2205.780,-2205.397,26,0,0,-42.3,348.3,3110.539,3110.922,17,0,0,-56.3,234.4,1514.387,1514.769,15,0,0,-60.1,17.2,1754.020,1754.403,12,0,0,-61.1,81.8,-1283.249,-1282.866,9,0,0,-78.2,149.1,-471.377,-470.994,27,0,0,-84.2,230.6,6.721,7.104*1f7bb8ec
#INSPVAA,SPECIAL_30,0,34.5,FINESTEERING,1646,579487.200,00000000,5615,38836;1646,579487.196343000,42.479199265,-71.338272617,885.066842929,-69.689858573,19.470158715,-4.997708737,-10.403914982,-3.738087617,167.210388939,INS_SOLUTION_GOOD*e982c98c
#INSPVAA,SPECIAL_30,0,34.5,FINESTEERING,1646,579487.400,00000000,5615,38836;1646,579487.396361000,42.479073843,-71.338224972,884.067638996,-69.655451709,19.760965956,-5.009542544,-10.207605672,-3.789023707,166.839417645,INS_SOLUTION_GOOD*05a0f0bc
#INSPVAA,SPECIAL_30,0,34.5,FINESTEERING,1646,579487.600,00000000,5615,38836;1646,579487.596370000,42.478948492,-71.338176663,883.066493603,-69.617367294,20.038315983,-5.008090275,-9.924007891,-3.813609118,166.545013257,INS_SOLUTION_GOOD*35e3beba
#INSPVAA,SPECIAL_30,0,34.5,FINESTEERING,1646,579487.800,00000000,5615,38836;1646,579487.796396000,42.478823192,-71.338127719,882.073526109,-69.597815809,20.298890231,-4.944312756,-9.552803839,-3.813472222,166.300540119,INS_SOLUTION_GOOD*14a625d7
#BESTPOSA,SPECIAL_30,0,33.0,FINESTEERING,1646,579488.000,00000000,6145,38836;SOL_COMPUTED,OMNISTAR_HP,42.47872657664,-71.33808328552,911.7099,-28.5000,WGS84,0.0264,0.0341,0.0859,"1000",12.000,0.000,10,9,9,9,0,00,0,03*fb32948a
#BESTGPSPOSA,SPECIAL_30,0,33.0,FINESTEERING,1646,579488.000,00000000,af5b,38836;SOL_COMPUTED,OMNISTAR_HP,42.47872657664,-71.33808328552,911.7099,-28.5000,WGS84,0.0264,0.0341,0.0859,"1000",12.000,0.000,10,9,9,9,0,00,0,03*425edc8a
#INSPVAA,SPECIAL_30,0,33.0,FINESTEERING,1646,579488.000,00000000,5615,38836;1646,579487.996405000,42.478697938,-71.338078102,881.094570442,-69.575124731,20.572016416,-4.824674084,-9.008975615,-3.825400339,166.037471632,INS_SOLUTION_GOOD*db25e606
#INSCOVA,SPECIAL_30,0,33.0,FINESTEERING,1646,579488.043,00000000,0929,38836;1646,579488.000000000,0.0035947514074207,-0.0000037600082180,-0.0003243692419482,-0.0000037600082180,0.0036544696347524,0.0000347911783492,-0.0003243692419482,0.0000347911783492,0.0015748366053425,0.0001115412177302,-0.0000028875243618,0.0001674024571131,-0.0000028875243618,0.0000927993251932,-0.0000107727916375,0.0001674024571131,-0.0000107727916375,0.0013775976341261,0.0001286551118900,-0.0000010381034620,-0.0000192313963507,-0.0000010381034620,0.0001319327336367,0.0000007963309556,-0.0000192313963507,0.0000007963309556,0.0000146861187947*92594295
#TRACKSTATA,SPECIAL_30,0,33.0,FINESTEERING,1646,579488.000,00000000,457c,38836;SOL_COMPUTED,OMNISTAR_HP,0.0,23,23,0,08109c04,20745652.932,-1208.750,49.754,9275.250,-0.366,GOOD,1.654,23,0,01309c0b,20745647.873,-941.887,44.508,9259.900,0.000,OBSL2,0.000,16,0,18109c24,20589125.513,-1358.723,50.255,9281.350,-0.021,GOOD,3.582,16,0,11309c2b,20589121.658,-1058.750,47.427,9264.840,0.000,OBSL2,0.000,13,0,18109c44,20969154.099,675.441,50.030,5820.946,0.044,GOOD,1.392,13,0,11309c4b,20969151.189,526.312,45.297,5819.400,0.000,OBSL2,0.000,7,0,08109c64,24105173.514,2928.586,47.537,1270.220,0.690,GOOD,0.542,7,0,01309c6b,24105172.847,2282.012,39.586,1268.680,0.000,OBSL2,0.000,6,0,08109c84,20655683.280,306.812,50.503,8810.260,0.081,GOOD,2.803,6,0,01309c8b,20655680.759,239.074,46.002,8810.260,0.000,OBSL2,0.000,3,0,18109ca4,20095430.060,1661.297,50.536,6355.470,0.082,GOOD,2.758,3,0,11309cab,20095427.563,1294.516,45.582,6355.460,0.000,OBSL2,0.000,19,0,08109cc4,22260088.226,3639.398,49.848,2150.280,0.113,GOOD,0.736,19,0,01309ccb,22260084.384,2835.898,45.499,2150.300,0.000,OBSL2,0.000,21,0,18109ce4,25179768.920,556.109,47.597,226.230,-0.408,GOOD,0.516,21,0,11309ceb,25179768.077,433.332,38.738,223.720,0.000,OBSL2,0.000,10,0,18109d04,25131994.312,-1162.480,39.321,25.550,-0.276,GOOD,0.486,10,0,11309d0b,25131990.767,-905.832,30.872,10.420,0.000,OBSL2,0.000,31,0,08109d24,24459250.105,-2692.270,49.214,9269.570,0.095,GOOD,0.526,31,0,01309d2b,24459250.031,-2097.875,43.562,9252.820,0.000,OBSL2,0.000,0,0,0c022140,0.000,0.000,0.000,0.000,0.000,NA,0.000,0,0,0c022160,0.000,0.000,0.000,0.000,0.000,NA,0.000,0,0,0a671584,0.000,87.121,41.563,9280.614,0.000,NA,0.000*81afef51
#SATVISA,SPECIAL_30,0,33.0,FINESTEERING,1646,579488.000,00000000,0947,38836;TRUE,TRUE,30,16,0,0,68.2,32.8,-1358.840,-1358.614,6,0,0,65.2,112.5,308.546,308.771,3,0,0,65.1,156.8,1663.591,1663.816,23,0,0,56.8,231.1,-1210.070,-1209.845,13,0,0,53.5,287.1,673.512,673.737,19,0,0,34.7,180.8,3640.311,3640.536,7,0,0,16.6,302.0,2929.943,2930.168,31,0,0,13.2,113.8,-2691.428,-2691.202,21,0,0,10.6,62.1,557.010,557.235,10,0,0,5.9,305.2,-1164.781,-1164.556,20,0,0,-3.5,221.8,-2384.712,-2384.487,5,0,0,-6.2,350.2,906.730,906.956,8,0,0,-6.3,296.1,2909.303,2909.528,32,0,0,-7.0,200.9,-2055.195,-2054.970,11,0,0,-10.9,188.5,3125.197,3125.422,29,0,0,-12.1,28.9,-3822.728,-3822.503,24,0,0,-22.1,195.7,1776.226,1776.451,28,0,0,-25.8,244.5,2648.502,2648.728,2,0,0,-27.7,327.9,-2773.900,-2773.674,22,0,0,-31.6,118.3,914.787,915.012,18,0,0,-32.2,82.6,1714.053,1714.279,14,0,0,-32.6,145.1,-2640.705,-2640.480,25,0,0,-36.0,73.9,-2469.577,-2469.351,4,0,0,-36.8,287.5,-2211.465,-2211.240,26,0,0,-42.3,348.3,3109.533,3109.759,17,0,0,-56.3,234.4,1510.526,1510.751,15,0,0,-60.1,17.2,1754.978,1755.203,12,0,0,-61.1,81.8,-1280.135,-1279.910,9,0,0,-78.2,149.1,-471.347,-471.122,27,0,0,-84.2,230.6,5.411,5.636*2d921f04
#INSPVAA,SPECIAL_30,0,33.0,FINESTEERING,1646,579488.200,00000000,5615,38836;1646,579488.196391000,42.478572663,-71.338027773,880.132371830,-69.538297382,20.789079778,-4.752126096,-8.438421937,-3.874429011,165.748911293,INS_SOLUTION_GOOD*a064a45e
#INSPVAA,SPECIAL_30,0,33.0,FINESTEERING,1646,579488.400,00000000,5615,38836;1646,579488.396406000,42.478447526,-71.337976902,879.176035550,-69.500762687,21.036750317,-4.770693918,-7.965736532,-3.953437554,165.466048101,INS_SOLUTION_GOOD*6e255f8d
#INSPVAA,SPECIAL_30,0,33.0,FINESTEERING,1646,579488.600,00000000,5615,38836;1646,579488.596417000,42.478322438,-71.337925473,878.220554710,-69.476795777,21.259519804,-4.790308739,-7.577883943,-3.972286487,165.224660499,INS_SOLUTION_GOOD*63aacf49
#INSPVAA,SPECIAL_30,0,33.0,FINESTEERING,1646,579488.800,00000000,5615,38836;1646,579488.796430000,42.478197388,-71.337873546,877.262780590,-69.448312448,21.480923591,-4.819543856,-7.337031205,-3.963097694,165.026994869,INS_SOLUTION_GOOD*abebfbbc
#BESTPOSA,SPECIAL_30,0,33.0,FINESTEERING,1646,579489.000,00000000,6145,38836;SOL_COMPUTED,OMNISTAR_HP,42.47810080233,-71.33782799741,906.9319,-28.5000,WGS84,0.0265,0.0342,0.0862,"1000",13.000,0.000,10,9,9,9,0,00,0,03*8ccac038
#BESTGPSPOSA,SPECIAL_30,0,33.0,FINESTEERING,1646,579489.000,00000000,af5b,38836;SOL_COMPUTED,OMNISTAR_HP,42.47810080233,-71.33782799741,906.9319,-28.5000,WGS84,0.0265,0.0342,0.0862,"1000",13.000,0.000,10,9,9,9,0,00,0,03*35a68838
#INSPVAA,SPECIAL_30,0,33.0,FINESTEERING,1646,579489.000,00000000,5615,38836;1646,579488.996451000,42.478072383,-71.337821127,876.301261116,-69.423358713,21.696352536,-4.842570944,-7.162524352,-3.937910195,164.862134688,INS_SOLUTION_GOOD*2d74ae74
#INSCOVA,SPECIAL_30,0,33.0,FINESTEERING,1646,579489.049,00000000,0929,38836;1646,579489.000000000,0.0035907970108420,-0.0000051824176216,-0.0003288183051626,-0.0000051824176216,0.0036516888588730,0.0000301705678135,-0.0003288183051626,0.0000301705678135,0.0015762220995159,0.0001123139632606,-0.0000026387828538,0.0001704283875919,-0.0000026387828538,0.0000927168445290,-0.0000082828821226,0.0001704283875919,-0.0000082828821226,0.0013844279733760,0.0001294123345357,-0.0000009516778479,-0.0000191553223412,-0.0000009516778479,0.0001321656558522,0.0000004096075446,-0.0000191553223412,0.0000004096075446,0.0000146352042911*ff7f4629
#TRACKSTATA,SPECIAL_30,0,33.0,FINESTEERING,1646,579489.000,00000000,457c,38836;SOL_COMPUTED,OMNISTAR_HP,0.0,23,23,0,08109c04,20745883.303,-1212.621,51.030,9276.250,-0.359,GOOD,1.654,23,0,01309c0b,20745878.228,-944.902,45.272,9260.900,0.000,OBSL2,0.000,16,0,18109c24,20589383.933,-1357.586,50.009,9282.350,-0.020,GOOD,3.573,16,0,11309c2b,20589380.075,-1057.863,45.861,9265.840,0.000,OBSL2,0.000,13,0,18109c44,20969025.908,671.270,50.520,5821.946,0.065,GOOD,1.390,13,0,11309c4b,20969022.991,523.062,45.325,5820.400,0.000,OBSL2,0.000,7,0,08109c64,24104616.693,2923.598,48.819,1271.220,0.744,GOOD,0.542,7,0,01309c6b,24104616.035,2278.129,42.079,1269.680,0.000,OBSL2,0.000,6,0,08109c84,20655624.728,308.270,50.547,8811.260,0.072,GOOD,2.798,6,0,01309c8b,20655622.201,240.207,46.064,8811.260,0.000,OBSL2,0.000,3,0,18109ca4,20095113.914,1661.012,50.660,6356.470,0.073,GOOD,2.754,3,0,11309cab,20095111.422,1294.289,45.394,6356.460,0.000,OBSL2,0.000,19,0,08109cc4,22259395.786,3637.812,50.051,2151.280,0.127,GOOD,0.735,19,0,01309ccb,22259391.937,2834.664,45.585,2151.300,0.000,OBSL2,0.000,21,0,18109ce4,25179662.612,561.105,47.408,227.230,-0.373,GOOD,0.516,21,0,11309ceb,25179661.761,437.309,39.638,224.720,0.000,OBSL2,0.000,10,0,18109d04,25132216.187,-1167.980,39.511,26.550,-0.379,GOOD,0.487,10,0,11309d0b,25132213.231,-910.105,27.776,11.420,0.000,OBSL2,0.000,31,0,08109d24,24459761.923,-2687.277,49.314,9270.570,0.101,GOOD,0.526,31,0,01309d2b,24459761.841,-2093.988,42.950,9253.820,0.000,OBSL2,0.000,0,0,0c022140,0.000,0.000,0.000,0.000,0.000,NA,0.000,0,0,0c022160,0.000,0.000,0.000,0.000,0.000,NA,0.000,0,0,0a671584,0.000,84.234,42.137,9281.615,0.000,NA,0.000*5d840d3b
#SATVISA,SPECIAL_30,0,33.0,FINESTEERING,1646,579489.000,00000000,0947,38836;TRUE,TRUE,30,16,0,0,68.2,32.8,-1357.282,-1357.410,6,0,0,65.2,112.5,310.386,310.258,3,0,0,65.1,156.8,1663.763,1663.636,23,0,0,56.8,231.1,-1213.462,-1213.590,13,0,0,53.5,287.1,669.712,669.584,19,0,0,34.7,180.8,3639.127,3639.000,7,0,0,16.6,302.0,2925.326,2925.198,31,0,0,13.2,113.8,-2686.155,-2686.283,21,0,0,10.6,62.0,562.581,562.453,10,0,0,5.9,305.2,-1169.815,-1169.943,20,0,0,-3.5,221.7,-2389.522,-2389.650,5,0,0,-6.2,350.2,906.144,906.016,8,0,0,-6.2,296.1,2904.096,2903.969,32,0,0,-7.0,200.9,-2058.156,-2058.284,11,0,0,-10.9,188.5,3123.556,3123.428,29,0,0,-12.1,28.9,-3818.837,-3818.965,24,0,0,-22.1,195.7,1774.082,1773.954,28,0,0,-25.8,244.5,2642.728,2642.601,2,0,0,-27.7,327.9,-2776.281,-2776.409,22,0,0,-31.6,118.2,919.372,919.244,18,0,0,-32.2,82.6,1719.566,1719.438,14,0,0,-32.6,145.1,-2638.247,-2638.375,25,0,0,-36.0,73.9,-2464.292,-2464.419,4,0,0,-36.8,287.5,-2215.961,-2216.089,26,0,0,-42.3,348.3,3109.305,3109.177,17,0,0,-56.3,234.4,1507.477,1507.349,15,0,0,-60.1,17.2,1756.437,1756.309,12,0,0,-61.1,81.8,-1276.992,-1277.119,9,0,0,-78.2,149.1,-470.937,-471.065,27,0,0,-84.2,230.7,4.714,4.586*79bbb2a3
#INSPVAA,SPECIAL_30,0,33.0,FINESTEERING,1646,579489.200,00000000,5615,38836;1646,579489.196442000,42.477947361,-71.337768223,875.332812103,-69.401687473,21.873144260,-4.838897565,-7.003359108,-3.920899017,164.752080190,INS_SOLUTION_GOOD*0ffa3145
#INSPVAA,SPECIAL_30,0,33.0,FINESTEERING,1646,579489.400,00000000,5615,38836;1646,579489.396449000,42.477822448,-71.337714874,874.361571343,-69.372494017,22.058433948,-4.886752619,-6.873755962,-3.914622074,164.685675460,INS_SOLUTION_GOOD*98cdb452
#INSPVAA,SPECIAL_30,0,36.0,FINESTEERING,1646,579489.600,00000000,5615,38836;1646,579489.596465000,42.477697602,-71.337661103,873.377040774,-69.329373236,22.236198838,-4.989238350,-6.755815272,-3.900812759,164.656705326,INS_SOLUTION_GOOD*7a01c4d5
#INSPVAA,SPECIAL_30,0,36.0,FINESTEERING,1646,579489.800,00000000,5615,38836;1646,579489.796482000,42.477572818,-71.337606953,872.373967186,-69.305297458,22.388140880,-5.028352623,-6.547700132,-3.836542142,164.669703734,INS_SOLUTION_GOOD*64d1f731
#BESTPOSA,SPECIAL_30,0,33.0,FINESTEERING,1646,579490.000,00000000,6145,38836;SOL_COMPUTED,OMNISTAR_HP,42.47747646621,-71.33755987870,902.0015,-28.5000,WGS84,0.0266,0.0344,0.0865,"1000",14.000,0.000,10,9,9,9,0,00,0,03*fe2ceafc
#BESTGPSPOSA,SPECIAL_30,0,33.0,FINESTEERING,1646,579490.000,00000000,af5b,38836;SOL_COMPUTED,OMNISTAR_HP,42.47747646621,-71.33755987870,902.0015,-28.5000,WGS84,0.0266,0.0344,0.0865,"1000",14.000,0.000,10,9,9,9,0,00,0,03*4740a2fc
#INSPVAA,SPECIAL_30,0,36.0,FINESTEERING,1646,579490.000,00000000,5615,38836;1646,579489.996496000,42.477448067,-71.337552404,871.378854571,-69.283031677,22.537374212,-4.946672615,-6.091722912,-3.738562387,164.679815646,INS_SOLUTION_GOOD*5c7284f6
#INSCOVA,SPECIAL_30,0,33.0,FINESTEERING,1646,579490.051,00000000,0929,38836;1646,579490.000000000,0.0035904839174194,-0.0000061238313521,-0.0003319764020734,-0.0000061238313521,0.0036502462626127,0.0000250632384222,-0.0003319764020734,0.0000250632384222,0.0015770877864361,0.0001130734506157,-0.0000023641506408,0.0001733538129658,-0.0000023641506408,0.0000926472670303,-0.0000057001804255,0.0001733538129658,-0.0000057001804255,0.0013912138105576,0.0001296306032225,-0.0000006548217816,-0.0000187102562204,-0.0000006548217816,0.0001317243590437,0.0000000599492680,-0.0000187102562204,0.0000000599492680,0.0000144783650711*48785719
#TRACKSTATA,SPECIAL_30,0,33.0,FINESTEERING,1646,579490.000,00000000,457c,38836;SOL_COMPUTED,OMNISTAR_HP,0.0,23,23,0,08109c04,20746114.440,-1216.223,50.406,9277.250,-0.226,GOOD,1.664,23,0,01309c0b,20746109.373,-947.711,44.974,9261.900,0.000,OBSL2,0.000,16,0,18109c24,20589642.327,-1357.855,49.777,9283.350,-0.048,GOOD,3.622,16,0,11309c2b,20589638.468,-1058.074,46.008,9266.840,0.000,OBSL2,0.000,13,0,18109c44,20968898.558,667.547,50.466,5822.946,0.099,GOOD,1.405,13,0,11309c4b,20968895.644,520.160,45.051,5821.400,0.000,OBSL2,0.000,7,0,08109c64,24104060.737,2920.055,48.769,1272.220,0.603,GOOD,0.543,7,0,01309c6b,24104060.072,2275.371,41.852,1270.680,0.000,OBSL2,0.000,6,0,08109c84,20655566.113,308.074,50.369,8812.260,0.033,GOOD,2.828,6,0,01309c8b,20655563.579,240.055,46.340,8812.260,0.000,OBSL2,0.000,3,0,18109ca4,20094797.962,1659.934,50.634,6357.470,0.079,GOOD,2.784,3,0,11309cab,20094795.467,1293.445,45.485,6357.460,0.000,OBSL2,0.000,19,0,08109cc4,22258703.692,3636.246,50.223,2152.280,0.027,GOOD,0.738,19,0,01309ccb,22258699.827,2833.441,45.407,2152.300,0.000,OBSL2,0.000,21,0,18109ce4,25179555.492,564.410,47.122,228.230,-0.084,GOOD,0.517,21,0,11309ceb,25179554.612,439.797,39.373,225.720,0.000,OBSL2,0.000,10,0,18109d04,25132438.860,-1171.594,40.308,27.550,-0.446,GOOD,0.491,10,0,11309d0b,25132436.179,-912.770,30.484,12.420,0.000,OBSL2,0.000,31,0,08109d24,24460272.950,-2684.078,49.177,9271.570,0.016,GOOD,0.527,31,0,01309d2b,24460272.861,-2091.500,43.725,9254.820,0.000,OBSL2,0.000,0,0,0c022140,0.000,0.000,0.000,0.000,0.000,NA,0.000,0,0,0c022160,0.000,0.000,0.000,0.000,0.000,NA,0.000,0,0,0a671584,0.000,80.117,42.453,9282.614,0.000,NA,0.000*3e768768
#SATVISA,SPECIAL_30,0,33.0,FINESTEERING,1646,579490.000,00000000,0947,38836;TRUE,TRUE,30,16,0,0,68.2,32.8,-1357.548,-1357.684,6,0,0,65.2,112.5,310.249,310.112,3,0,0,65.1,156.8,1662.532,1662.395,23,0,0,56.8,231.1,-1216.930,-1217.066,13,0,0,53.5,287.1,665.947,665.811,19,0,0,34.7,180.8,3637.568,3637.432,7,0,0,16.6,302.0,2921.812,2921.675,31,0,0,13.2,113.8,-2682.900,-2683.037,21,0,0,10.6,62.0,565.856,565.719,10,0,0,5.9,305.2,-1173.530,-1173.667,20,0,0,-3.5,221.7,-2392.505,-2392.641,5,0,0,-6.2,350.2,905.615,905.479,8,0,0,-6.2,296.1,2900.730,2900.593,32,0,0,-7.1,200.9,-2059.780,-2059.917,11,0,0,-10.9,188.5,3122.920,3122.783,29,0,0,-12.1,28.9,-3816.050,-3816.186,24,0,0,-22.1,195.7,1773.383,1773.246,28,0,0,-25.8,244.5,2639.438,2639.301,2,0,0,-27.7,327.9,-2777.375,-2777.511,22,0,0,-31.6,118.2,923.265,923.128,18,0,0,-32.2,82.5,1723.977,1723.841,14,0,0,-32.6,145.1,-2635.764,-2635.901,25,0,0,-36.0,74.0,-2459.955,-2460.091,4,0,0,-36.8,287.5,-2218.138,-2218.274,26,0,0,-42.3,348.3,3109.980,3109.844,17,0,0,-56.3,234.4,1506.656,1506.520,15,0,0,-60.1,17.1,1758.544,1758.408,12,0,0,-61.1,81.9,-1273.703,-1273.839,9,0,0,-78.2,149.1,-469.344,-469.480,27,0,0,-84.2,230.7,5.560,5.423*1fc1398c
#INSPVAA,SPECIAL_30,0,36.0,FINESTEERING,1646,579490.200,00000000,5615,38836;1646,579490.196502000,42.477323293,-71.337497449,870.401592549,-69.275398039,22.665977277,-4.759161791,-5.610332975,-3.687820935,164.618213334,INS_SOLUTION_GOOD*c0e667d3
#INSPVAA,SPECIAL_30,0,30.5,FINESTEERING,1646,579490.400,00000000,5615,38836;1646,579490.396516000,42.477198590,-71.337442082,869.465856486,-69.274083118,22.821127278,-4.579808960,-5.261915338,-3.688464413,164.530286378,INS_SOLUTION_GOOD*77a3d48a
#INSPVAA,SPECIAL_30,0,30.5,FINESTEERING,1646,579490.600,00000000,5615,38836;1646,579490.596536000,42.477073914,-71.337386385,868.547428798,-69.261731710,22.949304401,-4.552606497,-4.913043825,-3.762509235,164.473371886,INS_SOLUTION_GOOD*300434ca
#INSPVAA,SPECIAL_30,0,30.5,FINESTEERING,1646,579490.800,00000000,5615,38836;1646,579490.796545000,42.476949270,-71.337330400,867.624594452,-69.236240293,23.058096530,-4.618584695,-4.434106050,-3.800640037,164.442750786,INS_SOLUTION_GOOD*cd6d12c1
#BESTPOSA,SPECIAL_30,0,30.5,FINESTEERING,1646,579491.000,00000000,6145,38836;SOL_COMPUTED,OMNISTAR_HP,42.47685278905,-71.33728283647,897.3161,-28.5000,WGS84,0.0267,0.0345,0.0868,"1000",15.000,0.000,10,9,9,9,0,00,0,03*c269177a
#BESTGPSPOSA,SPECIAL_30,0,30.5,FINESTEERING,1646,579491.000,00000000,af5b,38836;SOL_COMPUTED,OMNISTAR_HP,42.47685278905,-71.33728283647,897.3161,-28.5000,WGS84,0.0267,0.0345,0.0868,"1000",15.000,0.000,10,9,9,9,0,00,0,03*7b055f7a
#INSPVAA,SPECIAL_30,0,30.5,FINESTEERING,1646,579491.000,00000000,5615,38836;1646,579490.996553000,42.476824647,-71.337274189,866.689226761,-69.227642858,23.138687200,-4.679460339,-3.887585014,-3.767228589,164.428694097,INS_SOLUTION_GOOD*aa4a7633
#INSCOVA,SPECIAL_30,0,30.5,FINESTEERING,1646,579491.044,00000000,0929,38836;1646,579491.000000000,0.0035902462555070,-0.0000061367737347,-0.0003326784099504,-0.0000061367737347,0.0036462655343089,0.0000196345670542,-0.0003326784099504,0.0000196345670542,0.0015771145080526,0.0001137774985617,-0.0000020639412677,0.0001760970982863,-0.0000020639412677,0.0000925735311922,-0.0000030212559453,0.0001760970982863,-0.0000030212559453,0.0013981212182825,0.0001295269870139,-0.0000001419438123,-0.0000178513236620,-0.0000001419438123,0.0001311262609943,-0.0000002988737825,-0.0000178513236620,-0.0000002988737825,0.0000142132612197*f32e068b
#COMCONFIGA,SPECIAL_30,0,30.5,FINESTEERING,1646,579491.081,00000000,85aa,38836;4,COM1,9600,N,8,1,N,OFF,ON,NOVATEL,NOVATEL,ON,COM2,230400,N,8,2,N,OFF,ON,NOVATEL,NOVATEL,OFF,COM3,115200,N,8,1,N,OFF,ON,IMU,IMU,OFF,AUX,115200,N,8,1,N,OFF,OFF,IMU,IMU,OFF*0e3d2ea0
